[
	{
		"name": "압구정웰동물병원",
		"gu": "강남구",
		"dong": "신사동",
		"Latitude": "37.5228465",
		"Longitude": "127.02055",
		"address": "서울특별시 강남구 신사동 528-3번지 덕산빌딩 203호"
	},
	{
		"name": "헬릭스동물메디컬센터",
		"gu": "서초구",
		"dong": "반포동",
		"Latitude": "37.504903900000002",
		"Longitude": "127.0022467",
		"address": "서울특별시 서초구 반포동 19-1번지 르본시티 2층"
	},
	{
		"name": "윤신근박사동물병원",
		"gu": "중구",
		"dong": "필동",
		"Latitude": "37.561588899999997",
		"Longitude": "126.9968405",
		"address": "서울특별시 중구 필동2가 53번지"
	},
	{
		"name": "바우미우동물병원",
		"gu": "중구",
		"dong": "신당동",
		"Latitude": "37.559238800000003",
		"Longitude": "127.01284800000001",
		"address": "서울특별시 중구 신당동 336-3번지"
	},
	{
		"name": "황동물병원",
		"gu": "중구",
		"dong": "묵정동",
		"Latitude": "37.5623255",
		"Longitude": "126.99997500000001",
		"address": "서울특별시 중구 묵정동 32-1번지"
	},
	{
		"name": "대한동물병원",
		"gu": "중구",
		"dong": "충무로",
		"Latitude": "37.562100299999997",
		"Longitude": "126.99701949999999",
		"address": "서울특별시 중구 충무로4가 93-1번지"
	},
	{
		"name": "남산동물병원",
		"gu": "중구",
		"dong": "신당동",
		"Latitude": "37.547324000000003",
		"Longitude": "127.00668400000001",
		"address": "서울특별시 중구 신당동 844번지 남산타운아파트 5상가동동 217호"
	},
	{
		"name": "미래지동물의료센터",
		"gu": "중구",
		"dong": "신당동",
		"Latitude": "37.553625199999999",
		"Longitude": "127.00960259999999",
		"address": "서울특별시 중구 신당동 368-19번지"
	},
	{
		"name": "차지우동물병원",
		"gu": "중구",
		"dong": "신당동",
		"Latitude": "37.556258900000003",
		"Longitude": "127.00993889999999",
		"address": "서울특별시 중구 신당동 422-1번지 청화빌딩 1층"
	},
	{
		"name": "웰펫동물병원",
		"gu": "중구",
		"dong": "신당동",
		"Latitude": "37.554212700000001",
		"Longitude": "127.0114373",
		"address": "서울특별시 중구 신당동 373-64번지"
	},
	{
		"name": "백슬동물병원",
		"gu": "중구",
		"dong": "만리동",
		"Latitude": "37.555703100000002",
		"Longitude": "126.9664155",
		"address": "서울특별시 중구 만리동2가 10-1번지"
	},
	{
		"name": "웰니스 클리닉(청계천점)",
		"gu": "중구",
		"dong": "황학동",
		"Latitude": "37.570873300000002",
		"Longitude": "127.0213284",
		"address": "서울특별시 중구 황학동 2545번지 이마트 청계천점 지하2층"
	},
	{
		"name": "좋아요 동물병원",
		"gu": "중구",
		"dong": "신당동",
		"Latitude": "37.560478400000001",
		"Longitude": "127.0190886",
		"address": "서울특별시 중구 신당동 44-17번지 1층"
	},
	{
		"name": "그녀의 동물병원",
		"gu": "중구",
		"dong": "신당동",
		"Latitude": "37.547482100000003",
		"Longitude": "127.0064117",
		"address": "서울특별시 중구 신당동 844번지 남산타운아파트"
	},
	{
		"name": "우신동물병원",
		"gu": "양천구",
		"dong": "신월동",
		"Latitude": "37.522572400000001",
		"Longitude": "126.85138139999999",
		"address": "서울특별시 양천구 신월동 501-12번지"
	},
	{
		"name": "강현림 종합동물병원",
		"gu": "양천구",
		"dong": "목동",
		"Latitude": "37.5439796",
		"Longitude": "126.8624166",
		"address": "서울특별시 양천구 목동 657-16번지"
	},
	{
		"name": "해성동물병원",
		"gu": "양천구",
		"dong": "신정동",
		"Latitude": "37.520615399999997",
		"Longitude": "126.8601254",
		"address": "서울특별시 양천구 신정동 1020-17 번지"
	},
	{
		"name": "노아동물병원",
		"gu": "양천구",
		"dong": "신정동",
		"Latitude": "37.520653799999998",
		"Longitude": "126.8728638",
		"address": "서울특별시 양천구 신정동 88-27번지"
	},
	{
		"name": "양천종합동물병원",
		"gu": "양천구",
		"dong": "신월동",
		"Latitude": "37.519981000000001",
		"Longitude": "126.8365553",
		"address": "서울특별시 양천구 신월동"
	},
	{
		"name": "이솝동물병원",
		"gu": "양천구",
		"dong": "신정동",
		"Latitude": "37.5179975",
		"Longitude": "126.87059720000001",
		"address": "서울특별시 양천구 신정동 294-29번지"
	},
	{
		"name": "나우동물종합병원",
		"gu": "양천구",
		"dong": "목동",
		"Latitude": "37.538140800000001",
		"Longitude": "126.87207669999999",
		"address": "서울특별시 양천구 목동 752-1번지 극동상가 103"
	},
	{
		"name": "민병철동물병원",
		"gu": "양천구",
		"dong": "신월동",
		"Latitude": "37.536166999999999",
		"Longitude": "126.8284415",
		"address": "서울특별시 양천구 신월동 50-5번지"
	},
	{
		"name": "필동물종합병원",
		"gu": "양천구",
		"dong": "목동",
		"Latitude": "37.531328999999999",
		"Longitude": "126.86409310000001",
		"address": "서울특별시 양천구 목동 805-1번지"
	},
	{
		"name": "애니케어동물병원",
		"gu": "양천구",
		"dong": "신월동",
		"Latitude": "37.522137700000002",
		"Longitude": "126.8516245",
		"address": "서울특별시 양천구 신월동 502-5번지"
	},
	{
		"name": "혜인종합 동물병원",
		"gu": "양천구",
		"dong": "목동",
		"Latitude": "37.549107999999997",
		"Longitude": "126.863889",
		"address": "서울특별시 양천구 목동 613-8 번지"
	},
	{
		"name": "신정 동물병원",
		"gu": "양천구",
		"dong": "신정동",
		"Latitude": "37.525236399999997",
		"Longitude": "126.8594385",
		"address": "서울특별시 양천구 신정동 987-3번지 1층"
	},
	{
		"name": "토론토 동물병원",
		"gu": "양천구",
		"dong": "목동",
		"Latitude": "37.545075900000001",
		"Longitude": "126.8625742",
		"address": "서울특별시 양천구 목동 657-21 번지 A동 102호"
	},
	{
		"name": "리즈동물병원",
		"gu": "양천구",
		"dong": "목동",
		"Latitude": "37.5335003",
		"Longitude": "126.86951259999999",
		"address": "서울특별시 양천구 목동 773-3번지 106호"
	},
	{
		"name": "참사랑동물병원",
		"gu": "양천구",
		"dong": "신정동",
		"Latitude": "37.508155899999998",
		"Longitude": "126.8650868",
		"address": "서울특별시 양천구 신정동 337-7번지"
	},
	{
		"name": "파란종합 동물병원",
		"gu": "양천구",
		"dong": "신월동",
		"Latitude": "37.5191205",
		"Longitude": "126.8429762",
		"address": "서울특별시 양천구 신월동 536-6번지"
	},
	{
		"name": "일오삼동물병원",
		"gu": "양천구",
		"dong": "신월동",
		"Latitude": "37.5204807",
		"Longitude": "126.8348781",
		"address": "서울특별시 양천구 신월동 972-6번지 104호"
	},
	{
		"name": "행복한동물병원",
		"gu": "양천구",
		"dong": "목동",
		"Latitude": "37.546636300000003",
		"Longitude": "126.8753561",
		"address": "서울특별시 양천구 목동 515-1번지"
	},
	{
		"name": "미니주동물병원",
		"gu": "양천구",
		"dong": "목동",
		"Latitude": "37.547998700000001",
		"Longitude": "126.86781689999999",
		"address": "서울특별시 양천구 목동 601-6번지"
	},
	{
		"name": "리더스24시 동물병원",
		"gu": "양천구",
		"dong": "신정동",
		"Latitude": "37.521607400000001",
		"Longitude": "126.87421260000001",
		"address": "서울특별시 양천구 신정동 117-37번지"
	},
	{
		"name": "우리들 동물메디컬 센터",
		"gu": "양천구",
		"dong": "신정동",
		"Latitude": "37.522871299999998",
		"Longitude": "126.86487529999999",
		"address": "서울특별시 양천구 신정동 1007-10번지"
	},
	{
		"name": "햇살동물병원",
		"gu": "양천구",
		"dong": "신월동",
		"Latitude": "37.523752000000002",
		"Longitude": "126.84226769999999",
		"address": "서울특별시 양천구 신월동 446-4 번지"
	},
	{
		"name": "행복한세상동물병원",
		"gu": "양천구",
		"dong": "목동",
		"Latitude": "37.529172199999998",
		"Longitude": "126.8759793",
		"address": "서울특별시 양천구 목동 917-6번지 지하2층"
	},
	{
		"name": "쿨펫이마트 목동점 동물병원",
		"gu": "양천구",
		"dong": "목동",
		"Latitude": "37.525871199999997",
		"Longitude": "126.87081449999999",
		"address": "서울특별시 양천구 목동 962번지 트라펠리스 지하1층"
	},
	{
		"name": "가나종합동물병원",
		"gu": "양천구",
		"dong": "목동",
		"Latitude": "37.537606199999999",
		"Longitude": "126.88208950000001",
		"address": "서울특별시 양천구 목동 908-31번지 목동프라자"
	},
	{
		"name": "닥터펫동물병원",
		"gu": "양천구",
		"dong": "목동",
		"Latitude": "37.53",
		"Longitude": "126.8730556",
		"address": "서울특별시 양천구 목동 919-7번지 홈플러스 2층"
	},
	{
		"name": "상아동물병원",
		"gu": "양천구",
		"dong": "신정동",
		"Latitude": "37.524616799999997",
		"Longitude": "126.86433409999999",
		"address": "서울특별시 양천구 신정동 995-4번지"
	},
	{
		"name": "목동 동물병원",
		"gu": "양천구",
		"dong": "목동",
		"Latitude": "37.536642499999999",
		"Longitude": "126.87985449999999",
		"address": "서울특별시 양천구 목동 907-10번지"
	},
	{
		"name": "푸른들동물병원",
		"gu": "양천구",
		"dong": "신정동",
		"Latitude": "37.513289100000001",
		"Longitude": "126.855733",
		"address": "서울특별시 양천구 신정동 1267번지 목동뉴프라자 112"
	},
	{
		"name": "하니동물병원",
		"gu": "양천구",
		"dong": "목동",
		"Latitude": "37.535093799999999",
		"Longitude": "126.86374979999999",
		"address": "서울특별시 양천구 목동 783-2번지 1"
	},
	{
		"name": "오라고동물병원",
		"gu": "양천구",
		"dong": "목동",
		"Latitude": "37.549367599999997",
		"Longitude": "126.86689869999999",
		"address": "서울특별시 양천구 목동 603-2번지 대우마이빌 102호"
	},
	{
		"name": "팜랜드동물병원",
		"gu": "양천구",
		"dong": "목동",
		"Latitude": "37.532794500000001",
		"Longitude": "126.8684495",
		"address": "서울특별시 양천구 목동 799-1번지 1층"
	},
	{
		"name": "대현동물병원",
		"gu": "양천구",
		"dong": "목동",
		"Latitude": "37.544383000000003",
		"Longitude": "126.8708364",
		"address": "서울특별시 양천구 목동 531-13번지 101호"
	},
	{
		"name": "서서울호수동물병원",
		"gu": "양천구",
		"dong": "신월동",
		"Latitude": "37.530254100000001",
		"Longitude": "126.83240790000001",
		"address": "서울특별시 양천구 신월동 130-5번지 1층"
	},
	{
		"name": "키움 동물병원",
		"gu": "노원구",
		"dong": "공릉동",
		"Latitude": "37.622143000000001",
		"Longitude": "127.08637160000001",
		"address": "서울특별시 노원구 공릉동 90-1번지 해중빌딩 105호"
	},
	{
		"name": "방주동물의료센터",
		"gu": "강동구",
		"dong": "성내동",
		"Latitude": "37.522448400000002",
		"Longitude": "127.1336562",
		"address": "서울특별시 강동구 성내동 449-13번지"
	},
	{
		"name": "고려종합동물병원",
		"gu": "강서구",
		"dong": "가양동",
		"Latitude": "37.562584800000003",
		"Longitude": "126.85299379999999",
		"address": "서울특별시 강서구 가양동 1480-5번지"
	},
	{
		"name": "센트럴동물병원",
		"gu": "강남구",
		"dong": "대치동",
		"Latitude": "37.498981499999999",
		"Longitude": "127.06216689999999",
		"address": "서울특별시 강남구 대치동 989-2번지 성창상가 1층"
	},
	{
		"name": "수서동물병원",
		"gu": "강남구",
		"dong": "수서동",
		"Latitude": "37.484370900000002",
		"Longitude": "127.09462360000001",
		"address": "서울특별시 강남구 수서동 595번지 제이스프라자 109호"
	},
	{
		"name": "마루동물병원",
		"gu": "송파구",
		"dong": "거여동",
		"Latitude": "37.489955799999997",
		"Longitude": "127.1447166",
		"address": "서울특별시 송파구 거여동 290-3번지"
	},
	{
		"name": "다옴동물병원",
		"gu": "강남구",
		"dong": "일원동",
		"Latitude": "37.480436099999999",
		"Longitude": "127.0828228",
		"address": "서울특별시 강남구 일원동 739번지 청솔빌리지상가 23-25호"
	},
	{
		"name": "포레동물병원",
		"gu": "성동구",
		"dong": "성수동",
		"Latitude": "37.543593799999996",
		"Longitude": "127.04916059999999",
		"address": "서울특별시 성동구 성수동1가 22-28번지 1층"
	},
	{
		"name": "바론동물의료센터",
		"gu": "동대문구",
		"dong": "이문동",
		"Latitude": "37.5984506",
		"Longitude": "127.0618484",
		"address": "서울특별시 동대문구 이문동 292-10번지"
	},
	{
		"name": "한국동물영상의학센터",
		"gu": "중랑구",
		"dong": "중화동",
		"Latitude": "37.594999199999997",
		"Longitude": "127.07940979999999",
		"address": "서울특별시 중랑구 중화동 207-6번지"
	},
	{
		"name": "공감동물병원",
		"gu": "강서구",
		"dong": "마곡동",
		"Latitude": "37.5764888",
		"Longitude": "126.8307466",
		"address": "서울특별시 강서구 마곡동 751번지"
	},
	{
		"name": "롯데동물병원",
		"gu": "노원구",
		"dong": "중계동",
		"Latitude": "37.644230999999998",
		"Longitude": "127.0634009",
		"address": "서울특별시 노원구 중계동 503번지 시영1단지B상가 118호"
	},
	{
		"name": "25시동물병원",
		"gu": "노원구",
		"dong": "중계동",
		"Latitude": "37.6474434",
		"Longitude": "127.0779019",
		"address": "서울특별시 노원구 중계동 363번지 대림벽산상가 102호"
	},
	{
		"name": "은빛동물병원",
		"gu": "노원구",
		"dong": "상계동",
		"Latitude": "37.658909399999999",
		"Longitude": "127.0640484",
		"address": "서울특별시 노원구 상계동 1110번지 42통7반 두산아파트 111동 1107호"
	},
	{
		"name": "은마로동물병원",
		"gu": "노원구",
		"dong": "중계동",
		"Latitude": "37.660040599999903",
		"Longitude": "127.07772199999999",
		"address": "서울특별시 노원구 중계동 173-1번지 29통6반 벽산아파트 105동 1111호"
	},
	{
		"name": "그린동물병원",
		"gu": "노원구",
		"dong": "상계동",
		"Latitude": "37.658909399999999",
		"Longitude": "127.0640484",
		"address": "서울특별시 노원구 상계동 78번지 15통2반 진로유통조합아파트 1102호"
	},
	{
		"name": "고려동물병원",
		"gu": "노원구",
		"dong": "상계동",
		"Latitude": "37.658909399999999",
		"Longitude": "127.0640484",
		"address": "서울특별시 노원구 상계동 79-145번지 44통4반"
	},
	{
		"name": "미래동물병원",
		"gu": "노원구",
		"dong": "공릉동",
		"Latitude": "37.6255977",
		"Longitude": "127.0785126",
		"address": "서울특별시 노원구 공릉동 94-6번지 13통7반 301호"
	},
	{
		"name": "우리들동물종합병원",
		"gu": "노원구",
		"dong": "중계동",
		"Latitude": "37.643526999999999",
		"Longitude": "127.0654588",
		"address": "서울특별시 노원구 중계동 512번지 시영2단지상가 116호"
	},
	{
		"name": "당고개동물병원",
		"gu": "노원구",
		"dong": "상계동",
		"Latitude": "37.670408100000003",
		"Longitude": "127.0842238",
		"address": "서울특별시 노원구 상계동 71-225번지 23통5반"
	},
	{
		"name": "참사랑동물병원",
		"gu": "노원구",
		"dong": "중계동",
		"Latitude": "37.6517762",
		"Longitude": "127.077513",
		"address": "서울특별시 노원구 중계동 366-10번지 중원코아빌딩 101호"
	},
	{
		"name": "참동물병원",
		"gu": "노원구",
		"dong": "상계동",
		"Latitude": "37.672023799999998",
		"Longitude": "127.0830952",
		"address": "서울특별시 노원구 상계동 2-1번지 부영(아) 109-1903"
	},
	{
		"name": "한강동물병원",
		"gu": "노원구",
		"dong": "상계동",
		"Latitude": "37.662376399999999",
		"Longitude": "127.0660757",
		"address": "서울특별시 노원구 상계동 430-13번지"
	},
	{
		"name": "스누피동물병원",
		"gu": "노원구",
		"dong": "공릉동",
		"Latitude": "37.627630199999999",
		"Longitude": "127.0775642",
		"address": "서울특별시 노원구 공릉동 441-152번지"
	},
	{
		"name": "시마동물병원",
		"gu": "노원구",
		"dong": "상계동",
		"Latitude": "37.650192799999999",
		"Longitude": "127.0634866",
		"address": "서울특별시 노원구 상계동 749-5번지 상계주공4단지아파트"
	},
	{
		"name": "수 동물병원",
		"gu": "노원구",
		"dong": "상계동",
		"Latitude": "37.681514200000002",
		"Longitude": "127.0565768",
		"address": "서울특별시 노원구 상계동 1265번지 동방미주(아)109-1001"
	},
	{
		"name": "LK 동물병원",
		"gu": "노원구",
		"dong": "중계동",
		"Latitude": "37.649720799999997",
		"Longitude": "127.0744577",
		"address": "서울특별시 노원구 중계동 360-2번지 청구3차 상가동 133호"
	},
	{
		"name": "브라운동물병원",
		"gu": "노원구",
		"dong": "중계동",
		"Latitude": "37.651439799999999",
		"Longitude": "127.0831273",
		"address": "서울특별시 노원구 중계동 525번지 풍림(아) 111-1808"
	},
	{
		"name": "수락 동물병원",
		"gu": "노원구",
		"dong": "상계동",
		"Latitude": "37.679712599999903",
		"Longitude": "127.0902234",
		"address": "서울특별시 노원구 상계동 11-410번지 태성빌라 202호"
	},
	{
		"name": "화랑동물병원",
		"gu": "노원구",
		"dong": "공릉동",
		"Latitude": "37.624735899999997",
		"Longitude": "127.0817031",
		"address": "서울특별시 노원구 공릉동 227-68번지"
	},
	{
		"name": "유림동물병원",
		"gu": "노원구",
		"dong": "월계동",
		"Latitude": "37.623252999999998",
		"Longitude": "127.0540058",
		"address": "서울특별시 노원구 월계동 98-9번지"
	},
	{
		"name": "우솔동물병원",
		"gu": "노원구",
		"dong": "월계동",
		"Latitude": "37.642116799999997",
		"Longitude": "127.05117629999999",
		"address": "서울특별시 노원구 월계동 52-24번지"
	},
	{
		"name": "(주)한빛종합동물병원",
		"gu": "노원구",
		"dong": "상계동",
		"Latitude": "37.650876199999999",
		"Longitude": "127.0618329",
		"address": "서울특별시 노원구 상계동 749-10번지"
	},
	{
		"name": "쿨펫동물병원",
		"gu": "노원구",
		"dong": "중계동",
		"Latitude": "37.650910600000003",
		"Longitude": "127.08165510000001",
		"address": "서울특별시 노원구 중계동 947-16번지 38통5반 3층"
	},
	{
		"name": "로얄벳 동물병원",
		"gu": "노원구",
		"dong": "월계동",
		"Latitude": "37.632442099999999",
		"Longitude": "127.0456595",
		"address": "서울특별시 노원구 월계동 331-1 번지 신세계이마트 2층"
	},
	{
		"name": "이앤박동물병원",
		"gu": "노원구",
		"dong": "상계동",
		"Latitude": "37.658909399999999",
		"Longitude": "127.0640484",
		"address": "서울특별시 노원구 상계동 682번지 13통8반 동신아파트 103동 708호"
	},
	{
		"name": "아란종합동물병원",
		"gu": "노원구",
		"dong": "월계동",
		"Latitude": "37.628225399999998",
		"Longitude": "127.0631101",
		"address": "서울특별시 노원구 월계동 3-94번지 드림빌 201호"
	},
	{
		"name": "스마일플러스동물병원",
		"gu": "노원구",
		"dong": "공릉동",
		"Latitude": "37.6237517",
		"Longitude": "127.0732642",
		"address": "서울특별시 노원구 공릉동 494-17번지 영운빌딩 1층"
	},
	{
		"name": "중계이오동물병원",
		"gu": "노원구",
		"dong": "중계동",
		"Latitude": "37.649831900000002",
		"Longitude": "127.0763465",
		"address": "서울특별시 노원구 중계동 360-9번지 두타빌 A동 111"
	},
	{
		"name": "펫가든",
		"gu": "노원구",
		"dong": "중계동",
		"Latitude": "37.646662300000003",
		"Longitude": "127.0709672",
		"address": "서울특별시 노원구 중계동 361번지"
	},
	{
		"name": "엔젤동물병원",
		"gu": "노원구",
		"dong": "공릉동",
		"Latitude": "37.628457599999997",
		"Longitude": "127.0718555",
		"address": "서울특별시 노원구 공릉동 362-3번지"
	},
	{
		"name": "주식회사 노원24시동물의료센터",
		"gu": "노원구",
		"dong": "상계동",
		"Latitude": "37.657400699999997",
		"Longitude": "127.06673069999999",
		"address": "서울특별시 노원구 상계동 371-2번지"
	},
	{
		"name": "이성환동물병원",
		"gu": "서초구",
		"dong": "방배동",
		"Latitude": "37.493833100000003",
		"Longitude": "126.99006439999999",
		"address": "서울특별시 서초구 방배동 796-1번지"
	},
	{
		"name": "유림동물안과병원",
		"gu": "서초구",
		"dong": "잠원동",
		"Latitude": "37.518069300000001",
		"Longitude": "127.0184754",
		"address": "서울특별시 서초구 잠원동 8-24번지 크레신타워 1층"
	},
	{
		"name": "남서울동물병원",
		"gu": "서초구",
		"dong": "방배동",
		"Latitude": "37.492423700000003",
		"Longitude": "126.9916281",
		"address": "서울특별시 서초구 방배동 809-1번지"
	},
	{
		"name": "서초동물병원",
		"gu": "서초구",
		"dong": "서초동",
		"Latitude": "37.4853746",
		"Longitude": "127.0170523",
		"address": "서울특별시 서초구 서초동 1603-66번지"
	},
	{
		"name": "서이동물병원",
		"gu": "서초구",
		"dong": "서초동",
		"Latitude": "37.491691799999998",
		"Longitude": "127.02486500000001",
		"address": "서울특별시 서초구 서초동 1332-7번지"
	},
	{
		"name": "신반포종합동물병원",
		"gu": "서초구",
		"dong": "반포동",
		"Latitude": "37.503320000000002",
		"Longitude": "127.0107957",
		"address": "서울특별시 서초구 반포동 56-1번지"
	},
	{
		"name": "레스펫동물병원",
		"gu": "서초구",
		"dong": "양재동",
		"Latitude": "37.484886799999998",
		"Longitude": "127.0412381",
		"address": "서울특별시 서초구 양재동 2-43 번지 동아B 1층"
	},
	{
		"name": "라파엘동물병원",
		"gu": "서초구",
		"dong": "반포동",
		"Latitude": "37.508750499999998",
		"Longitude": "127.0219251",
		"address": "서울특별시 서초구 반포동 722-29번지"
	},
	{
		"name": "방배한강동물병원",
		"gu": "서초구",
		"dong": "방배동",
		"Latitude": "37.4916646",
		"Longitude": "126.9914732",
		"address": "서울특별시 서초구 방배동 811-11번지 지상1층"
	},
	{
		"name": "우성동물의료센터",
		"gu": "서초구",
		"dong": "반포동",
		"Latitude": "37.503726700000001",
		"Longitude": "127.0207918",
		"address": "서울특별시 서초구 반포동 745-6번지"
	},
	{
		"name": "수동물병원",
		"gu": "서초구",
		"dong": "방배동",
		"Latitude": "37.492459699999998",
		"Longitude": "126.9864609",
		"address": "서울특별시 서초구 방배동 790-27 번지"
	},
	{
		"name": "내방동물병원",
		"gu": "서초구",
		"dong": "방배동",
		"Latitude": "37.487437",
		"Longitude": "126.99412289999999",
		"address": "서울특별시 서초구 방배동 898-3번지"
	},
	{
		"name": "메디펫 동물병원",
		"gu": "서초구",
		"dong": "서초동",
		"Latitude": "37.487547399999997",
		"Longitude": "127.0259037",
		"address": "서울특별시 서초구 서초동 1343-1번지"
	},
	{
		"name": "우면동물병원",
		"gu": "서초구",
		"dong": "우면동",
		"Latitude": "37.470816800000001",
		"Longitude": "127.025368",
		"address": "서울특별시 서초구 우면동 66-2번지 우면세신상가 201호"
	},
	{
		"name": "사랑의동물병원",
		"gu": "서초구",
		"dong": "양재동",
		"Latitude": "37.474789000000001",
		"Longitude": "127.0421619",
		"address": "서울특별시 서초구 양재동 257-2번지"
	},
	{
		"name": "한 동물병원",
		"gu": "서초구",
		"dong": "양재동",
		"Latitude": "37.471851399999998",
		"Longitude": "127.04593800000001",
		"address": "서울특별시 서초구 양재동 377-4번지"
	},
	{
		"name": "이상록동물병원",
		"gu": "서초구",
		"dong": "잠원동",
		"Latitude": "37.515319499999997",
		"Longitude": "127.01402299999999",
		"address": "서울특별시 서초구 잠원동 50-5번지 신사쇼핑 102-2"
	},
	{
		"name": "다니엘동물병원",
		"gu": "서초구",
		"dong": "서초동",
		"Latitude": "37.482802700000001",
		"Longitude": "127.00612959999999",
		"address": "서울특별시 서초구 서초동 1487-1번지"
	},
	{
		"name": "교대동물병원",
		"gu": "서초구",
		"dong": "서초동",
		"Latitude": "37.494918400000003",
		"Longitude": "127.0170358",
		"address": "서울특별시 서초구 서초동 1690-2번지 지상1층"
	},
	{
		"name": "서래동물병원",
		"gu": "서초구",
		"dong": "반포동",
		"Latitude": "37.497750000000003",
		"Longitude": "126.99239",
		"address": "서울특별시 서초구 반포동 91-0010번지"
	},
	{
		"name": "프렌즈동물병원",
		"gu": "서초구",
		"dong": "방배동",
		"Latitude": "37.4810686",
		"Longitude": "126.9982866",
		"address": "서울특별시 서초구 방배동 984-1 번지 105호"
	},
	{
		"name": "임갑미동물병원",
		"gu": "서초구",
		"dong": "잠원동",
		"Latitude": "37.508570300000002",
		"Longitude": "127.0119401",
		"address": "서울특별시 서초구 잠원동 58-24번지 뉴타운"
	},
	{
		"name": "리즈동물병원",
		"gu": "서초구",
		"dong": "잠원동",
		"Latitude": "37.521222999999999",
		"Longitude": "127.0151286",
		"address": "서울특별시 서초구 잠원동 49-8번지"
	},
	{
		"name": "두리종합동물병원",
		"gu": "서초구",
		"dong": "반포동",
		"Latitude": "37.504431699999998",
		"Longitude": "127.0008024",
		"address": "서울특별시 서초구 반포동 18-3번지 래미안퍼스티지 중심상가 1층 143호"
	},
	{
		"name": "디아나동물병원",
		"gu": "서초구",
		"dong": "방배동",
		"Latitude": "37.484758399999997",
		"Longitude": "126.9958402",
		"address": "서울특별시 서초구 방배동 905-3번지"
	},
	{
		"name": "반려동물 의료센터 다울",
		"gu": "서초구",
		"dong": "방배동",
		"Latitude": "37.480395100000003",
		"Longitude": "126.99516029999999",
		"address": "서울특별시 서초구 방배동 981-52번지"
	},
	{
		"name": "24시예스동물병원",
		"gu": "서초구",
		"dong": "반포동",
		"Latitude": "37.507070400000003",
		"Longitude": "127.0098014",
		"address": "서울특별시 서초구 반포동 20-45번지 반포자이프라자 133호"
	},
	{
		"name": "반포자이동물병원",
		"gu": "서초구",
		"dong": "반포동",
		"Latitude": "37.509932999999997",
		"Longitude": "127.0182709",
		"address": "서울특별시 서초구 반포동 20-51번지 베리스타운102/108호"
	},
	{
		"name": "하나동물병원",
		"gu": "서초구",
		"dong": "신원동",
		"Latitude": "37.455497600000001",
		"Longitude": "127.0565252",
		"address": "서울특별시 서초구 신원동 412-5번지 힐스테이트서초잰트리스 103호"
	},
	{
		"name": "이리온 양재점",
		"gu": "서초구",
		"dong": "양재동",
		"Latitude": "37.462952799999997",
		"Longitude": "127.0369582",
		"address": "서울특별시 서초구 양재동 215번지 이마트 양재점 지하1층"
	},
	{
		"name": "꿈꾸는 동물병원",
		"gu": "서초구",
		"dong": "반포동",
		"Latitude": "37.503765000000001",
		"Longitude": "127.013468",
		"address": "서울특별시 서초구 반포동 30-25번지 반포리체상가 106호"
	},
	{
		"name": "강남서초 동물병원",
		"gu": "서초구",
		"dong": "서초동",
		"Latitude": "37.4902236",
		"Longitude": "127.02035069999999",
		"address": "서울특별시 서초구 서초동 1648-9번지"
	},
	{
		"name": "아델 동물병원",
		"gu": "서초구",
		"dong": "서초동",
		"Latitude": "37.516486100000002",
		"Longitude": "127.0178559",
		"address": "서울특별시 서초구 서초동 1534-2번지 명성빌딩"
	},
	{
		"name": "동물제중원금손이 동물병원",
		"gu": "서초구",
		"dong": "방배동",
		"Latitude": "37.4880742",
		"Longitude": "126.9960548",
		"address": "서울특별시 서초구 방배동 894-2번지 선빌딩 101호"
	},
	{
		"name": "한나동물병원",
		"gu": "서초구",
		"dong": "방배동",
		"Latitude": "37.496616299999999",
		"Longitude": "126.9877312",
		"address": "서울특별시 서초구 방배동 758-2번지"
	},
	{
		"name": "서초힐스동물병원",
		"gu": "서초구",
		"dong": "우면동",
		"Latitude": "37.461360200000001",
		"Longitude": "127.026464",
		"address": "서울특별시 서초구 우면동 737번지 6단지상가 104호"
	},
	{
		"name": "반포한강동물병원",
		"gu": "서초구",
		"dong": "반포동",
		"Latitude": "37.502236000000003",
		"Longitude": "126.990027",
		"address": "서울특별시 서초구 반포동 1165번지"
	},
	{
		"name": "헤이븐동물병원",
		"gu": "서초구",
		"dong": "방배동",
		"Latitude": "37.491380800000002",
		"Longitude": "126.98305929999999",
		"address": "서울특별시 서초구 방배동 2238번지"
	},
	{
		"name": "청담동물병원",
		"gu": "강남구",
		"dong": "논현동",
		"Latitude": "37.5209513",
		"Longitude": "127.0363694",
		"address": "서울특별시 강남구 논현동 97-11번지"
	},
	{
		"name": "삼성종합동물병원",
		"gu": "강남구",
		"dong": "일원동",
		"Latitude": "37.489866900000003",
		"Longitude": "127.0814999",
		"address": "서울특별시 강남구 일원동 684-5번지"
	},
	{
		"name": "그린동물병원",
		"gu": "강남구",
		"dong": "대치동",
		"Latitude": "37.500571600000001",
		"Longitude": "127.0516483",
		"address": "서울특별시 강남구 대치동 908-2번지"
	},
	{
		"name": "포이동물병원",
		"gu": "강남구",
		"dong": "개포동",
		"Latitude": "37.478901",
		"Longitude": "127.0472425",
		"address": "서울특별시 강남구 개포동 1258-1번지"
	},
	{
		"name": "자연동물병원",
		"gu": "강남구",
		"dong": "개포동",
		"Latitude": "37.479216100000002",
		"Longitude": "127.0508995",
		"address": "서울특별시 강남구 개포동 1211번지"
	},
	{
		"name": "강남 25시동물병원",
		"gu": "강남구",
		"dong": "논현동",
		"Latitude": "37.516055600000001",
		"Longitude": "127.03865399999999",
		"address": "서울특별시 강남구 논현동 240-1번지"
	},
	{
		"name": "개포베스트동물병원",
		"gu": "강남구",
		"dong": "개포동",
		"Latitude": "37.483334800000002",
		"Longitude": "127.0600287",
		"address": "서울특별시 강남구 개포동 168-8번지"
	},
	{
		"name": "주주동물종합병원",
		"gu": "강남구",
		"dong": "대치동",
		"Latitude": "37.501680200000003",
		"Longitude": "127.0505632",
		"address": "서울특별시 강남구 대치동 898-8번지"
	},
	{
		"name": "서경석동물병원",
		"gu": "강남구",
		"dong": "일원동",
		"Latitude": "37.491878999999997",
		"Longitude": "127.0834825",
		"address": "서울특별시 강남구 일원동 663번지 1층"
	},
	{
		"name": "우리집동물병원",
		"gu": "강남구",
		"dong": "도곡동",
		"Latitude": "37.486457600000001",
		"Longitude": "127.0451655",
		"address": "서울특별시 강남구 도곡동 180-31번지"
	},
	{
		"name": "퍼피즌동물병원",
		"gu": "강남구",
		"dong": "삼성동",
		"Latitude": "37.512142300000001",
		"Longitude": "127.0434188",
		"address": "서울특별시 강남구 삼성동 35-32번지 1층"
	},
	{
		"name": "논현동물병원",
		"gu": "강남구",
		"dong": "논현동",
		"Latitude": "37.507475999999997",
		"Longitude": "127.02678950000001",
		"address": "서울특별시 강남구 논현동 181-8번지 1층"
	},
	{
		"name": "현진우 동물병원",
		"gu": "강남구",
		"dong": "역삼동",
		"Latitude": "37.494141200000001",
		"Longitude": "127.0346773",
		"address": "서울특별시 강남구 역삼동 834-45번지"
	},
	{
		"name": "예은동물병원",
		"gu": "강남구",
		"dong": "역삼동",
		"Latitude": "37.492380900000001",
		"Longitude": "127.04001940000001",
		"address": "서울특별시 강남구 역삼동 798-20번지 1층"
	},
	{
		"name": "학동24시동물병원",
		"gu": "강남구",
		"dong": "논현동",
		"Latitude": "37.513736600000001",
		"Longitude": "127.02893829999999",
		"address": "서울특별시 강남구 논현동 58-2번지 마일스디오빌 114"
	},
	{
		"name": "개포동물병원",
		"gu": "강남구",
		"dong": "개포동",
		"Latitude": "37.489311700000002",
		"Longitude": "127.0688124",
		"address": "서울특별시 강남구 개포동 186-17번지 개포종합상가 1층"
	},
	{
		"name": "그레이스 동물병원",
		"gu": "강남구",
		"dong": "논현동",
		"Latitude": "37.510570299999998",
		"Longitude": "127.0242166",
		"address": "서울특별시 강남구 논현동 122-20번지 1층"
	},
	{
		"name": "충현동물병원",
		"gu": "강남구",
		"dong": "논현동",
		"Latitude": "37.509004399999903",
		"Longitude": "127.03273950000001",
		"address": "서울특별시 강남구 논현동 191-12번지 동림빌딩"
	},
	{
		"name": "한 동물병원",
		"gu": "강남구",
		"dong": "개포동",
		"Latitude": "37.4742344",
		"Longitude": "127.0498127",
		"address": "서울특별시 강남구 개포동 1187-1번지"
	},
	{
		"name": "일마레 동물 메디컬 센터",
		"gu": "강남구",
		"dong": "청담동",
		"Latitude": "37.523986700000002",
		"Longitude": "127.0492375",
		"address": "서울특별시 강남구 청담동 49-8번지"
	},
	{
		"name": "역삼동물병원",
		"gu": "강남구",
		"dong": "역삼동",
		"Latitude": "37.505376699999999",
		"Longitude": "127.0410207",
		"address": "서울특별시 강남구 역삼동 662-18번지 1층"
	},
	{
		"name": "닥터펫동물의료센터",
		"gu": "강남구",
		"dong": "삼성동",
		"Latitude": "37.512045200000003",
		"Longitude": "127.04343919999999",
		"address": "서울특별시 강남구 삼성동 35-3번지"
	},
	{
		"name": "이리온 동물의료원",
		"gu": "강남구",
		"dong": "청담동",
		"Latitude": "37.524284100000003",
		"Longitude": "127.0447752",
		"address": "서울특별시 강남구 청담동 97번지 외 2필지 2층"
	},
	{
		"name": "강남동물병원",
		"gu": "강남구",
		"dong": "논현동",
		"Latitude": "37.507727299999999",
		"Longitude": "127.0344594",
		"address": "서울특별시 강남구 논현동 234-26번지 1층"
	},
	{
		"name": "스마트동물병원",
		"gu": "강남구",
		"dong": "대치동",
		"Latitude": "37.502023000000001",
		"Longitude": "127.0503836",
		"address": "서울특별시 강남구 대치동 898번지 1층"
	},
	{
		"name": "개포별빛동물병원",
		"gu": "강남구",
		"dong": "개포동",
		"Latitude": "37.476398400000001",
		"Longitude": "127.0463008",
		"address": "서울특별시 강남구 개포동 1229-11번지"
	},
	{
		"name": "24시 신사동물병원",
		"gu": "강남구",
		"dong": "논현동",
		"Latitude": "37.517460799999903",
		"Longitude": "127.0237628",
		"address": "서울특별시 강남구 논현동 5-4번지"
	},
	{
		"name": "위너스 동물병원",
		"gu": "강남구",
		"dong": "역삼동",
		"Latitude": "37.497488500000003",
		"Longitude": "127.04218299999999",
		"address": "서울특별시 강남구 역삼동 732-26번지"
	},
	{
		"name": "마이펫동물의료센터",
		"gu": "강남구",
		"dong": "삼성동",
		"Latitude": "37.512511799999999",
		"Longitude": "127.0531532",
		"address": "서울특별시 강남구 삼성동 119-3번지"
	},
	{
		"name": "츄츄 동물병원",
		"gu": "강남구",
		"dong": "역삼동",
		"Latitude": "37.493121899999998",
		"Longitude": "127.03542210000001",
		"address": "서울특별시 강남구 역삼동 834-66번지"
	},
	{
		"name": "카디오 동물의료병원",
		"gu": "강남구",
		"dong": "논현동",
		"Latitude": "37.507153099999996",
		"Longitude": "127.027625",
		"address": "서울특별시 강남구 논현동 187-3번지"
	},
	{
		"name": "와이즈24시 동물병원",
		"gu": "강남구",
		"dong": "논현동",
		"Latitude": "37.511219199999999",
		"Longitude": "127.0238712",
		"address": "서울특별시 강남구 논현동 123-5번지"
	},
	{
		"name": "백산동물병원",
		"gu": "강남구",
		"dong": "역삼동",
		"Latitude": "37.499994600000001",
		"Longitude": "127.03934289999999",
		"address": "서울특별시 강남구 역삼동 725-15번지 2층"
	},
	{
		"name": "래이동물의료센터",
		"gu": "강남구",
		"dong": "대치동",
		"Latitude": "37.492664599999998",
		"Longitude": "127.0576942",
		"address": "서울특별시 강남구 대치동 649번지 1층"
	},
	{
		"name": "라온펫동물의료센터",
		"gu": "강남구",
		"dong": "대치동",
		"Latitude": "37.499491399999997",
		"Longitude": "127.0610527",
		"address": "서울특별시 강남구 대치동 그랑프리엔상가 지하1층 110호"
	},
	{
		"name": "24시 청담우리 동물병원",
		"gu": "강남구",
		"dong": "삼성동",
		"Latitude": "37.514453799999998",
		"Longitude": "127.0528413",
		"address": "서울특별시 강남구 삼성동 70-6번지"
	},
	{
		"name": "다정동물병원",
		"gu": "강남구",
		"dong": "논현동",
		"Latitude": "37.510729400000002",
		"Longitude": "127.02784219999999",
		"address": "서울특별시 강남구 논현동 149-6번지"
	},
	{
		"name": "이안동물의학센터(청담점)",
		"gu": "강남구",
		"dong": "청담동",
		"Latitude": "37.523950800000001",
		"Longitude": "127.0398933",
		"address": "서울특별시 강남구 청담동 86번지 5층"
	},
	{
		"name": "오래오래동물병원",
		"gu": "강남구",
		"dong": "역삼동",
		"Latitude": "37.495045500000003",
		"Longitude": "127.0451681",
		"address": "서울특별시 강남구 역삼동 784번지"
	},
	{
		"name": "대치성심동물병원",
		"gu": "강남구",
		"dong": "대치동",
		"Latitude": "37.493455999999902",
		"Longitude": "127.0597594",
		"address": "서울특별시 강남구 대치동 623번지 69-1호"
	},
	{
		"name": "아이윌24시동물병원",
		"gu": "강남구",
		"dong": "청담동",
		"Latitude": "37.5187831",
		"Longitude": "127.04877860000001",
		"address": "서울특별시 강남구 청담동 46-13번지 지상1층"
	},
	{
		"name": "수정동물병원",
		"gu": "강남구",
		"dong": "일원동",
		"Latitude": "37.483762300000002",
		"Longitude": "127.0808047",
		"address": "서울특별시 강남구 일원동 719번지"
	},
	{
		"name": "이비치 동물치과병원",
		"gu": "강남구",
		"dong": "청담동",
		"Latitude": "37.522224199999997",
		"Longitude": "127.0396519",
		"address": "서울특별시 강남구 청담동 1-18번지 2층"
	},
	{
		"name": "봄동물병원",
		"gu": "강남구",
		"dong": "역삼동",
		"Latitude": "37.490205899999999",
		"Longitude": "127.03296949999999",
		"address": "서울특별시 강남구 역삼동 838-9번지"
	},
	{
		"name": "마더스동물병원",
		"gu": "강남구",
		"dong": "세곡동",
		"Latitude": "37.465651399999999",
		"Longitude": "127.1011166",
		"address": "서울특별시 강남구 세곡동 581번지 강남리더스프라자 202-1호"
	},
	{
		"name": "도곡종합동물병원",
		"gu": "강남구",
		"dong": "역삼동",
		"Latitude": "37.495858800000001",
		"Longitude": "127.0464594",
		"address": "서울특별시 강남구 역삼동 761-18번지"
	},
	{
		"name": "치료멍멍동물병원",
		"gu": "강남구",
		"dong": "신사동",
		"Latitude": "37.522309399999997",
		"Longitude": "127.03517309999999",
		"address": "서울특별시 강남구 신사동 630-23번지 2"
	},
	{
		"name": "가로수동물병원",
		"gu": "강남구",
		"dong": "신사동",
		"Latitude": "37.524311099999998",
		"Longitude": "127.0234993",
		"address": "서울특별시 강남구 신사동 549-1번지 1층"
	},
	{
		"name": "드림동물병원",
		"gu": "강남구",
		"dong": "역삼동",
		"Latitude": "37.497064199999997",
		"Longitude": "127.04219639999999",
		"address": "서울특별시 강남구 역삼동 771번지 101호"
	},
	{
		"name": "힐스타동물병원",
		"gu": "강남구",
		"dong": "자곡동",
		"Latitude": "37.474981",
		"Longitude": "127.104983",
		"address": "서울특별시 강남구 자곡동 658-105번지 강남힐스테이트에코"
	},
	{
		"name": "동물병원다온",
		"gu": "강남구",
		"dong": "도곡동",
		"Latitude": "37.491322099999998",
		"Longitude": "127.03846110000001",
		"address": "서울특별시 강남구 도곡동 545-6번지 1층"
	},
	{
		"name": "독립문동물병원",
		"gu": "서대문구",
		"dong": "냉천동",
		"Latitude": "37.569053400000001",
		"Longitude": "126.9631893",
		"address": "서울특별시 서대문구 냉천동 195번지"
	},
	{
		"name": "송정동물메디컬센터",
		"gu": "강서구",
		"dong": "공항동",
		"Latitude": "37.561508199999999",
		"Longitude": "126.8116509",
		"address": "서울특별시 강서구 공항동 28-10번지"
	},
	{
		"name": "파리스동물병원",
		"gu": "양천구",
		"dong": "목동",
		"Latitude": "37.534391800000002",
		"Longitude": "126.8734671",
		"address": "서울특별시 양천구 목동 903번지 목동신시가지아파트3단지 제상가동 105호"
	},
	{
		"name": "서울햇빛동물병원",
		"gu": "은평구",
		"dong": "진관동",
		"Latitude": "37.634294599999997",
		"Longitude": "126.927747",
		"address": "서울특별시 은평구 진관동 82번지 은평뉴타운우물골아파트 두산위브 202동 B01호"
	},
	{
		"name": "여울동물병원",
		"gu": "서초구",
		"dong": "방배동",
		"Latitude": "37.4775183",
		"Longitude": "127.0006365",
		"address": "서울특별시 서초구 방배동 1024-4번지 덕산빌딩 105호"
	},
	{
		"name": "보다듬 동물병원",
		"gu": "강서구",
		"dong": "내발산동",
		"Latitude": "37.553427200000002",
		"Longitude": "126.8264511",
		"address": "서울특별시 강서구 내발산동 750-202번지"
	},
	{
		"name": "우리아이동물메디컬센터",
		"gu": "강서구",
		"dong": "내발산동",
		"Latitude": "37.558155599999999",
		"Longitude": "126.83910299999999",
		"address": "서울특별시 강서구 내발산동 646번지"
	},
	{
		"name": "대방동물병원",
		"gu": "영등포구",
		"dong": "신길동",
		"Latitude": "37.501399399999997",
		"Longitude": "126.92040590000001",
		"address": "서울특별시 영등포구 신길동 628번지"
	},
	{
		"name": "도림동물병원",
		"gu": "영등포구",
		"dong": "신길동",
		"Latitude": "37.507509800000001",
		"Longitude": "126.90382150000001",
		"address": "서울특별시 영등포구 신길동 296-12 번지"
	},
	{
		"name": "신풍동물종합병원",
		"gu": "영등포구",
		"dong": "신길동",
		"Latitude": "37.498660800000003",
		"Longitude": "126.90860240000001",
		"address": "서울특별시 영등포구 신길동 3611번지"
	},
	{
		"name": "참 동물병원",
		"gu": "영등포구",
		"dong": "신길동",
		"Latitude": "37.513600599999997",
		"Longitude": "126.91983430000001",
		"address": "서울특별시 영등포구 신길동 95-39번지"
	},
	{
		"name": "우신종합동물병원",
		"gu": "영등포구",
		"dong": "신길동",
		"Latitude": "37.507318499999997",
		"Longitude": "126.91070000000001",
		"address": "서울특별시 영등포구 신길동 232번지 15"
	},
	{
		"name": "한국동물병원",
		"gu": "영등포구",
		"dong": "신길동",
		"Latitude": "37.504936200000003",
		"Longitude": "126.9219995",
		"address": "서울특별시 영등포구 신길동 829-1번지"
	},
	{
		"name": "서울동물병원",
		"gu": "영등포구",
		"dong": "영등포동",
		"Latitude": "37.524285499999998",
		"Longitude": "126.9042255",
		"address": "서울특별시 영등포구 영등포동7가 64-48번지"
	},
	{
		"name": "마루동물병원",
		"gu": "영등포구",
		"dong": "문래동",
		"Latitude": "37.517399699999999",
		"Longitude": "126.895836",
		"address": "서울특별시 영등포구 문래동3가 55-5 번지 로데오왁상가105호"
	},
	{
		"name": "애드펫동물병원",
		"gu": "영등포구",
		"dong": "양평동",
		"Latitude": "37.521899699999999",
		"Longitude": "126.8846466",
		"address": "서울특별시 영등포구 양평동2가 1-1번지 신동아하이팰리스상가 104동 131호"
	},
	{
		"name": "디오빌 동물병원",
		"gu": "영등포구",
		"dong": "당산동",
		"Latitude": "37.533231999999998",
		"Longitude": "126.9022279",
		"address": "서울특별시 영등포구 당산동5가 11-33번지 당산디오빌 1층 103-3"
	},
	{
		"name": "Dr.수동물병원",
		"gu": "영등포구",
		"dong": "여의도동",
		"Latitude": "37.520456000000003",
		"Longitude": "126.93325299999999",
		"address": "서울특별시 영등포구 여의도동 42-1번지 롯데슈퍼 2층"
	},
	{
		"name": "(주)러브펫동물병원",
		"gu": "영등포구",
		"dong": "영등포동",
		"Latitude": "37.517274399999998",
		"Longitude": "126.90380879999999",
		"address": "서울특별시 영등포구 영등포동4가 442번지 타임스퀘어 지하1층 (B102)"
	},
	{
		"name": "온누리 종합동물병원",
		"gu": "영등포구",
		"dong": "신길동",
		"Latitude": "37.510790700000001",
		"Longitude": "126.9120272",
		"address": "서울특별시 영등포구 신길동 214-55번지 2층"
	},
	{
		"name": "유석동물병원",
		"gu": "영등포구",
		"dong": "신길동",
		"Latitude": "37.493417099999903",
		"Longitude": "126.9098039",
		"address": "서울특별시 영등포구 신길동 4824번지"
	},
	{
		"name": "I-pet 동물병원",
		"gu": "영등포구",
		"dong": "여의도동",
		"Latitude": "37.518137099999997",
		"Longitude": "126.9261297",
		"address": "서울특별시 영등포구 여의도동 47번지 자이상가 501동 109호"
	},
	{
		"name": "왈츠동물병원",
		"gu": "영등포구",
		"dong": "대림동",
		"Latitude": "37.498351599999999",
		"Longitude": "126.89549390000001",
		"address": "서울특별시 영등포구 대림동 776-2번지"
	},
	{
		"name": "도그플러스동물병원",
		"gu": "영등포구",
		"dong": "문래동",
		"Latitude": "37.518171199999998",
		"Longitude": "126.8959156",
		"address": "서울특별시 영등포구 문래동3가 55-3번지 4층"
	},
	{
		"name": "영등포동물병원",
		"gu": "영등포구",
		"dong": "당산동",
		"Latitude": "37.521469199999999",
		"Longitude": "126.8963286",
		"address": "서울특별시 영등포구 당산동1가 40-18번지"
	},
	{
		"name": "한가람동물의료센터",
		"gu": "영등포구",
		"dong": "신길동",
		"Latitude": "37.513791400000002",
		"Longitude": "126.9213869",
		"address": "서울특별시 영등포구 신길동 65-106번지 1층"
	},
	{
		"name": "미소로동물병원",
		"gu": "영등포구",
		"dong": "영등포동",
		"Latitude": "37.528508500000001",
		"Longitude": "126.9042056",
		"address": "서울특별시 영등포구 영등포동8가 72번지"
	},
	{
		"name": "캐나다동물병원",
		"gu": "동작구",
		"dong": "상도동",
		"Latitude": "37.500971700000001",
		"Longitude": "126.93242739999999",
		"address": "서울특별시 동작구 상도동 348-148번지 1층"
	},
	{
		"name": "24시 글로리 동물병원",
		"gu": "금천구",
		"dong": "독산동",
		"Latitude": "37.476704499999997",
		"Longitude": "126.8982445",
		"address": "서울특별시 금천구 독산동 145-13번지"
	},
	{
		"name": "담은동물병원",
		"gu": "은평구",
		"dong": "불광동",
		"Latitude": "37.6183087",
		"Longitude": "126.9390451",
		"address": "서울특별시 은평구 불광동 643번지 상가 지하2층 128호"
	},
	{
		"name": "원동물병원",
		"gu": "강남구",
		"dong": "대치동",
		"Latitude": "37.500988599999999",
		"Longitude": "127.05176969999999",
		"address": "서울특별시 강남구 대치동 907-12번지 우성빌딩 1층 103B호"
	},
	{
		"name": "베이동물병원",
		"gu": "용산구",
		"dong": "이촌동",
		"Latitude": "37.520066900000003",
		"Longitude": "126.9728763",
		"address": "서울특별시 용산구 이촌동 300-153번지 한강맨션 11동 102호"
	},
	{
		"name": "금천 24시 K동물의료센터",
		"gu": "금천구",
		"dong": "시흥동",
		"Latitude": "37.456045000000003",
		"Longitude": "126.8995615",
		"address": "서울특별시 금천구 시흥동 999-1번지"
	},
	{
		"name": "큐동물병원",
		"gu": "성북구",
		"dong": "장위동",
		"Latitude": "37.613947699999997",
		"Longitude": "127.04568639999999",
		"address": "서울특별시 성북구 장위동 225-61번지"
	},
	{
		"name": "한사랑동물병원",
		"gu": "성북구",
		"dong": "성북동",
		"Latitude": "37.590323599999998",
		"Longitude": "127.00382860000001",
		"address": "서울특별시 성북구 성북동1가 115-23번지"
	},
	{
		"name": "나래종합동물병원",
		"gu": "성북구",
		"dong": "동소문동",
		"Latitude": "37.591369700000001",
		"Longitude": "127.0129491",
		"address": "서울특별시 성북구 동소문동3가 79번지"
	},
	{
		"name": "다나동물병원",
		"gu": "성북구",
		"dong": "장위동",
		"Latitude": "37.613588200000002",
		"Longitude": "127.0615325",
		"address": "서울특별시 성북구 장위동 6-107번지"
	},
	{
		"name": "서울종합동물병원",
		"gu": "성북구",
		"dong": "보문동",
		"Latitude": "37.587070300000001",
		"Longitude": "127.0181668",
		"address": "서울특별시 성북구 보문동2가 49번지"
	},
	{
		"name": "대학동물병원",
		"gu": "성북구",
		"dong": "장위동",
		"Latitude": "37.614066800000003",
		"Longitude": "127.062342",
		"address": "서울특별시 성북구 장위동 3-16번지"
	},
	{
		"name": "강북동물병원",
		"gu": "성북구",
		"dong": "종암동",
		"Latitude": "37.596169600000003",
		"Longitude": "127.0351896",
		"address": "서울특별시 성북구 종암동 19-1번지"
	},
	{
		"name": "드림동물병원",
		"gu": "성북구",
		"dong": "동소문동",
		"Latitude": "37.5917976",
		"Longitude": "127.0136863",
		"address": "서울특별시 성북구 동소문동5가 8-1번지"
	},
	{
		"name": "길음동물병원",
		"gu": "성북구",
		"dong": "길음동",
		"Latitude": "37.602671000000001",
		"Longitude": "127.02362429999999",
		"address": "서울특별시 성북구 길음동 1276번지"
	},
	{
		"name": "행복한동물병원",
		"gu": "성북구",
		"dong": "장위동",
		"Latitude": "37.611111999999999",
		"Longitude": "127.0563071",
		"address": "서울특별시 성북구 장위동 64-124번지"
	},
	{
		"name": "미소동물병원",
		"gu": "성북구",
		"dong": "종암동",
		"Latitude": "37.598359799999997",
		"Longitude": "127.0343878",
		"address": "서울특별시 성북구 종암동 68-1번지"
	},
	{
		"name": "중앙동물병원",
		"gu": "성북구",
		"dong": "석관동",
		"Latitude": "37.608839099999997",
		"Longitude": "127.05929639999999",
		"address": "서울특별시 성북구 석관동 268-11번지"
	},
	{
		"name": "24시 북악동물병원",
		"gu": "성북구",
		"dong": "정릉동",
		"Latitude": "37.602777099999997",
		"Longitude": "127.0138426",
		"address": "서울특별시 성북구 정릉동 139-39번지"
	},
	{
		"name": "비비펫 동물병원",
		"gu": "성북구",
		"dong": "하월곡동",
		"Latitude": "37.602944899999997",
		"Longitude": "127.0420987",
		"address": "서울특별시 성북구 하월곡동 16-7번지"
	},
	{
		"name": "이솝동물병원",
		"gu": "성북구",
		"dong": "정릉동",
		"Latitude": "37.610695",
		"Longitude": "127.0092801",
		"address": "서울특별시 성북구 정릉동 285-3번지"
	},
	{
		"name": "ZOO동물병원",
		"gu": "성북구",
		"dong": "정릉동",
		"Latitude": "37.605849499999998",
		"Longitude": "127.01103070000001",
		"address": "서울특별시 성북구 정릉동 416-2번지 2층"
	},
	{
		"name": "우리동물병원",
		"gu": "성북구",
		"dong": "길음동",
		"Latitude": "37.610783400000003",
		"Longitude": "127.02258380000001",
		"address": "서울특별시 성북구 길음동 1125-9번지"
	},
	{
		"name": "VIP 동물의료센터",
		"gu": "성북구",
		"dong": "동소문동",
		"Latitude": "37.592207299999998",
		"Longitude": "127.01344539999999",
		"address": "서울특별시 성북구 동소문동6가 3-1번지 1층"
	},
	{
		"name": "태양 동물병원",
		"gu": "성북구",
		"dong": "석관동",
		"Latitude": "37.6069885",
		"Longitude": "127.0606765",
		"address": "서울특별시 성북구 석관동 332-23번지"
	},
	{
		"name": "쓰담쓰담 동물병원",
		"gu": "성북구",
		"dong": "종암동",
		"Latitude": "37.600114400000002",
		"Longitude": "127.033654",
		"address": "서울특별시 성북구 종암동 86-1번지"
	},
	{
		"name": "마로동물병원",
		"gu": "성북구",
		"dong": "하월곡동",
		"Latitude": "37.606419799999998",
		"Longitude": "127.0300189",
		"address": "서울특별시 성북구 하월곡동 88-64번지 성북힐스테이트 101동112호"
	},
	{
		"name": "호담동물병원",
		"gu": "성북구",
		"dong": "하월곡동",
		"Latitude": "37.606752499999999",
		"Longitude": "127.0285191",
		"address": "서울특별시 성북구 하월곡동 88-677번지"
	},
	{
		"name": "꿈의숲동물병원",
		"gu": "성북구",
		"dong": "장위동",
		"Latitude": "37.6180314",
		"Longitude": "127.0469459",
		"address": "서울특별시 성북구 장위동 215-2번지"
	},
	{
		"name": "도담도담동물병원",
		"gu": "성북구",
		"dong": "하월곡동",
		"Latitude": "37.6018094",
		"Longitude": "127.0403791",
		"address": "서울특별시 성북구 하월곡동 46-73번지 코업스타클래스 1층"
	},
	{
		"name": "카카오 N 동물병원",
		"gu": "성북구",
		"dong": "길음동",
		"Latitude": "37.607519699999997",
		"Longitude": "127.01800900000001",
		"address": "서울특별시 성북구 길음동 1284번지 길음뉴타운 제상가비동 제지2층 25호"
	},
	{
		"name": "강북 24시 N 동물의료센터",
		"gu": "성북구",
		"dong": "길음동",
		"Latitude": "37.605760500000002",
		"Longitude": "127.02436539999999",
		"address": "서울특별시 성북구 길음동 1163번지"
	},
	{
		"name": "가좌동물병원",
		"gu": "서대문구",
		"dong": "북가좌동",
		"Latitude": "37.5799801",
		"Longitude": "126.91113439999999",
		"address": "서울특별시 서대문구 북가좌동 308-1번지"
	},
	{
		"name": "인왕동물병원",
		"gu": "서대문구",
		"dong": "홍제동",
		"Latitude": "37.585752800000002",
		"Longitude": "126.947069",
		"address": "서울특별시 서대문구 홍제동 147-10번지"
	},
	{
		"name": "백년동물병원",
		"gu": "서대문구",
		"dong": "홍은동",
		"Latitude": "37.582003899999997",
		"Longitude": "126.92669050000001",
		"address": "서울특별시 서대문구 홍은동 398-9번지"
	},
	{
		"name": "한솔동물병원",
		"gu": "서대문구",
		"dong": "홍제동",
		"Latitude": "37.584879299999997",
		"Longitude": "126.94863700000001",
		"address": "서울특별시 서대문구 홍제동 103-6번지"
	},
	{
		"name": "북아현동물병원",
		"gu": "서대문구",
		"dong": "북아현동",
		"Latitude": "37.557476899999997",
		"Longitude": "126.9582759",
		"address": "서울특별시 서대문구 북아현동 126-12번지"
	},
	{
		"name": "홍제동물병원",
		"gu": "서대문구",
		"dong": "홍제동",
		"Latitude": "37.589582999999998",
		"Longitude": "126.9427214",
		"address": "서울특별시 서대문구 홍제동 330-54번지"
	},
	{
		"name": "신영동물병원",
		"gu": "서대문구",
		"dong": "홍은동",
		"Latitude": "37.591659",
		"Longitude": "126.9409143",
		"address": "서울특별시 서대문구 홍은동 217-30번지 나호"
	},
	{
		"name": "라파엘종합동물병원",
		"gu": "서대문구",
		"dong": "연희동",
		"Latitude": "37.571413",
		"Longitude": "126.9385317",
		"address": "서울특별시 서대문구 연희동 17-52번지 16통6반 동문1차아파트 102동 1006호"
	},
	{
		"name": "프란다스동물병원",
		"gu": "서대문구",
		"dong": "남가좌동",
		"Latitude": "37.575743699999997",
		"Longitude": "126.915567",
		"address": "서울특별시 서대문구 남가좌동 381번지"
	},
	{
		"name": "연희동물병원",
		"gu": "서대문구",
		"dong": "연희동",
		"Latitude": "37.568995800000003",
		"Longitude": "126.93206619999999",
		"address": "서울특별시 서대문구 연희동 89-9번지"
	},
	{
		"name": "우리동물병원",
		"gu": "서대문구",
		"dong": "영천동",
		"Latitude": "37.570860400000001",
		"Longitude": "126.96129190000001",
		"address": "서울특별시 서대문구 영천동 299번지"
	},
	{
		"name": "빛가온동물병원",
		"gu": "서대문구",
		"dong": "홍제동",
		"Latitude": "37.583551499999999",
		"Longitude": "126.94928179999999",
		"address": "서울특별시 서대문구 홍제동 90-67번지"
	},
	{
		"name": "마음을 나누는 동물병원",
		"gu": "서대문구",
		"dong": "북아현동",
		"Latitude": "37.558211",
		"Longitude": "126.95651239999999",
		"address": "서울특별시 서대문구 북아현동 134-25번지"
	},
	{
		"name": "초콜릿종합동물병원",
		"gu": "서대문구",
		"dong": "북가좌동",
		"Latitude": "37.5830974",
		"Longitude": "126.9134564",
		"address": "서울특별시 서대문구 북가좌동 333-7번지 302호"
	},
	{
		"name": "한스동물병원",
		"gu": "서대문구",
		"dong": "남가좌동",
		"Latitude": "37.5766098",
		"Longitude": "126.92484330000001",
		"address": "서울특별시 서대문구 남가좌동 338-39번지"
	},
	{
		"name": "가재울봉쥬르동물병원",
		"gu": "서대문구",
		"dong": "북가좌동",
		"Latitude": "37.577131199999997",
		"Longitude": "126.91085769999999",
		"address": "서울특별시 서대문구 북가좌동 304-29번지"
	},
	{
		"name": "두리틀동물병원",
		"gu": "서대문구",
		"dong": "북가좌동",
		"Latitude": "37.578801899999903",
		"Longitude": "126.910787",
		"address": "서울특별시 서대문구 북가좌동 306-21번지"
	},
	{
		"name": "예일동물병원",
		"gu": "서대문구",
		"dong": "홍은동",
		"Latitude": "37.580639099999999",
		"Longitude": "126.9258315",
		"address": "서울특별시 서대문구 홍은동 409-10번지"
	},
	{
		"name": "햇살동물병원",
		"gu": "서대문구",
		"dong": "북가좌동",
		"Latitude": "37.574991900000001",
		"Longitude": "126.90897339999999",
		"address": "서울특별시 서대문구 북가좌동 487번지"
	},
	{
		"name": "좋은동물병원",
		"gu": "광진구",
		"dong": "구의동",
		"Latitude": "37.548306500000002",
		"Longitude": "127.0892053",
		"address": "서울특별시 광진구 구의동 70-28번지 202호"
	},
	{
		"name": "마포동물병원",
		"gu": "마포구",
		"dong": "대흥동",
		"Latitude": "37.546977400000003",
		"Longitude": "126.9434038",
		"address": "서울특별시 마포구 대흥동 201-1 번지"
	},
	{
		"name": "서진동물병원",
		"gu": "마포구",
		"dong": "동교동",
		"Latitude": "37.556317300000003",
		"Longitude": "126.9326557",
		"address": "서울특별시 마포구 동교동 185-1 번지"
	},
	{
		"name": "서교동물병원",
		"gu": "마포구",
		"dong": "망원동",
		"Latitude": "37.556434899999999",
		"Longitude": "126.9045697",
		"address": "서울특별시 마포구 망원동 415-33 번지"
	},
	{
		"name": "뉴욕종합동물병원",
		"gu": "마포구",
		"dong": "서교동",
		"Latitude": "37.551948400000001",
		"Longitude": "126.916256",
		"address": "서울특별시 마포구 서교동 395-44 번지 한동빌딩 1층"
	},
	{
		"name": "용강동물병원",
		"gu": "마포구",
		"dong": "대흥동",
		"Latitude": "37.545379500000003",
		"Longitude": "126.9393389",
		"address": "서울특별시 마포구 대흥동 337-0041번지"
	},
	{
		"name": "디엔씨동물병원",
		"gu": "마포구",
		"dong": "노고산동",
		"Latitude": "37.556306999999997",
		"Longitude": "126.9426292",
		"address": "서울특별시 마포구 노고산동 1-67번지"
	},
	{
		"name": "월드펫동물병원",
		"gu": "마포구",
		"dong": "아현동",
		"Latitude": "37.556995999999998",
		"Longitude": "126.9533139",
		"address": "서울특별시 마포구 아현동 331-11번지"
	},
	{
		"name": "홍익동물종합병원",
		"gu": "마포구",
		"dong": "합정동",
		"Latitude": "37.548053600000003",
		"Longitude": "126.9183675",
		"address": "서울특별시 마포구 합정동 411-18 번지"
	},
	{
		"name": "망원동물종합병원",
		"gu": "마포구",
		"dong": "망원동",
		"Latitude": "37.554826899999902",
		"Longitude": "126.9108418",
		"address": "서울특별시 마포구 망원동 386-2번지"
	},
	{
		"name": "셀레네동물병원",
		"gu": "마포구",
		"dong": "상수동",
		"Latitude": "37.547882799999996",
		"Longitude": "126.922737",
		"address": "서울특별시 마포구 상수동 310-1 번지"
	},
	{
		"name": "C.T.종합동물병원",
		"gu": "마포구",
		"dong": "신공덕동",
		"Latitude": "37.546370199999998",
		"Longitude": "126.9580832",
		"address": "서울특별시 마포구 신공덕동 159번지 신공덕2차 삼성래미안2상가 117호"
	},
	{
		"name": "동물사랑동물병원",
		"gu": "마포구",
		"dong": "서교동",
		"Latitude": "37.555009200000001",
		"Longitude": "126.9113552",
		"address": "서울특별시 마포구 서교동 476-14번지"
	},
	{
		"name": "마리동물병원",
		"gu": "마포구",
		"dong": "동교동",
		"Latitude": "37.557926600000002",
		"Longitude": "126.92818699999999",
		"address": "서울특별시 마포구 동교동 174-20번지"
	},
	{
		"name": "행복한 동물병원",
		"gu": "마포구",
		"dong": "성산동",
		"Latitude": "37.569755299999997",
		"Longitude": "126.9043933",
		"address": "서울특별시 마포구 성산동 152-7번지 청화상가 104호"
	},
	{
		"name": "박창석종합동물병원",
		"gu": "마포구",
		"dong": "도화동",
		"Latitude": "37.541470799999999",
		"Longitude": "126.9503309",
		"address": "서울특별시 마포구 도화동 182-6번지"
	},
	{
		"name": "상암동물병원",
		"gu": "마포구",
		"dong": "상암동",
		"Latitude": "37.576016500000001",
		"Longitude": "126.8946625",
		"address": "서울특별시 마포구 상암동 34-46번지"
	},
	{
		"name": "웰케어동물병원",
		"gu": "마포구",
		"dong": "서교동",
		"Latitude": "37.5568369",
		"Longitude": "126.9190588",
		"address": "서울특별시 마포구 서교동 447-2번지"
	},
	{
		"name": "웨스턴 동물의료센터",
		"gu": "마포구",
		"dong": "노고산동",
		"Latitude": "37.5538162",
		"Longitude": "126.93676189999999",
		"address": "서울특별시 마포구 노고산동 952-0008번지"
	},
	{
		"name": "동물메디컬센터w",
		"gu": "마포구",
		"dong": "서교동",
		"Latitude": "37.553401399999998",
		"Longitude": "126.91229869999999",
		"address": "서울특별시 마포구 서교동 444-5번지"
	},
	{
		"name": "박효리군 동물병원",
		"gu": "마포구",
		"dong": "망원동",
		"Latitude": "37.552853300000002",
		"Longitude": "126.9065133",
		"address": "서울특별시 마포구 망원동 338-76번지"
	},
	{
		"name": "하이디 동물병원",
		"gu": "마포구",
		"dong": "합정동",
		"Latitude": "37.5478582",
		"Longitude": "126.9174932",
		"address": "서울특별시 마포구 합정동 363-1번지 합정동동 363-1호"
	},
	{
		"name": "힐링 24시 동물병원",
		"gu": "마포구",
		"dong": "신공덕동",
		"Latitude": "37.543155200000001",
		"Longitude": "126.9534998",
		"address": "서울특별시 마포구 신공덕동 172번지 펜트라우스 105동B2-35gh"
	},
	{
		"name": "24시 공덕종합동물병원",
		"gu": "마포구",
		"dong": "염리동",
		"Latitude": "37.546109000000001",
		"Longitude": "126.9452472",
		"address": "서울특별시 마포구 염리동 156-1번지 1층"
	},
	{
		"name": "도화동물병원",
		"gu": "마포구",
		"dong": "도화동",
		"Latitude": "37.537778899999999",
		"Longitude": "126.9472518",
		"address": "서울특별시 마포구 도화동 153번지"
	},
	{
		"name": "홍대 아이엠 중성화 진료 수술 센터",
		"gu": "마포구",
		"dong": "서교동",
		"Latitude": "37.554023399999998",
		"Longitude": "126.92057749999999",
		"address": "서울특별시 마포구 서교동 354-8번지"
	},
	{
		"name": "공덕 건강한 동물병원",
		"gu": "마포구",
		"dong": "공덕동",
		"Latitude": "37.544620399999999",
		"Longitude": "126.9526393",
		"address": "서울특별시 마포구 공덕동 256-13번지 제일빌딩 108호"
	},
	{
		"name": "한아름동물병원",
		"gu": "마포구",
		"dong": "창전동",
		"Latitude": "37.547686499999998",
		"Longitude": "126.9303831",
		"address": "서울특별시 마포구 창전동 308-1번지"
	},
	{
		"name": "워너비 동물병원",
		"gu": "마포구",
		"dong": "동교동",
		"Latitude": "37.557657800000001",
		"Longitude": "126.9225126",
		"address": "서울특별시 마포구 동교동 200-29번지"
	},
	{
		"name": "동물병원 닥터K",
		"gu": "마포구",
		"dong": "상암동",
		"Latitude": "37.576286799999998",
		"Longitude": "126.89321390000001",
		"address": "서울특별시 마포구 상암동 115-11번지"
	},
	{
		"name": "아프지말게 동물병원",
		"gu": "마포구",
		"dong": "상암동",
		"Latitude": "37.577639400000002",
		"Longitude": "126.88863379999999",
		"address": "서울특별시 마포구 상암동 1655번지"
	},
	{
		"name": "굿모닝 동물병원",
		"gu": "마포구",
		"dong": "염리동",
		"Latitude": "37.544728200000002",
		"Longitude": "126.94599530000001",
		"address": "서울특별시 마포구 염리동 164-4번지"
	},
	{
		"name": "카라동물병원",
		"gu": "마포구",
		"dong": "서교동",
		"Latitude": "37.557673000000001",
		"Longitude": "126.9137408",
		"address": "서울특별시 마포구 서교동 457-5번지"
	},
	{
		"name": "광화문동물병원",
		"gu": "종로구",
		"dong": "필운동",
		"Latitude": "37.576490700000001",
		"Longitude": "126.968655",
		"address": "서울특별시 종로구 필운동 137-5번지"
	},
	{
		"name": "한국동물암센터",
		"gu": "노원구",
		"dong": "상계동",
		"Latitude": "37.657400699999997",
		"Longitude": "127.06673069999999",
		"address": "서울특별시 노원구 상계동 371-2번지"
	},
	{
		"name": "보담동물병원",
		"gu": "중랑구",
		"dong": "면목동",
		"Latitude": "37.589922600000001",
		"Longitude": "127.0973606",
		"address": "서울특별시 중랑구 면목동 17-31번지"
	},
	{
		"name": "스마트동물병원",
		"gu": "동대문구",
		"dong": "장안동",
		"Latitude": "37.5707582",
		"Longitude": "127.0738212",
		"address": "서울특별시 동대문구 장안동 483번지 원석빌딩 1층"
	},
	{
		"name": "마곡숲동물병원",
		"gu": "강서구",
		"dong": "마곡동",
		"Latitude": "37.5764888",
		"Longitude": "126.8307466",
		"address": "서울특별시 강서구 마곡동 776-4번지 엠코지니어스타"
	},
	{
		"name": "원동물병원",
		"gu": "동작구",
		"dong": "사당동",
		"Latitude": "37.485841200000003",
		"Longitude": "126.9685185",
		"address": "서울특별시 동작구 사당동 224-24번지"
	},
	{
		"name": "세인트필립 동물병원",
		"gu": "동작구",
		"dong": "사당동",
		"Latitude": "37.477072199999903",
		"Longitude": "126.9767002",
		"address": "서울특별시 동작구 사당동 1047-49번지 102호"
	},
	{
		"name": "이수동물병원",
		"gu": "동작구",
		"dong": "사당동",
		"Latitude": "37.487662",
		"Longitude": "126.97553019999999",
		"address": "서울특별시 동작구 사당동 162-96번지 1층"
	},
	{
		"name": "정겨운동물병원",
		"gu": "동작구",
		"dong": "상도1동",
		"Latitude": "37.493936099999999",
		"Longitude": "126.9540612",
		"address": "서울특별시 동작구 상도1동 261번지"
	},
	{
		"name": "굿파파 24시 반려동물건강검진센터",
		"gu": "동작구",
		"dong": "사당동",
		"Latitude": "37.4848079",
		"Longitude": "126.9796443",
		"address": "서울특별시 동작구 사당동 148-9번지 1층 및 2층"
	},
	{
		"name": "나무동물병원",
		"gu": "동작구",
		"dong": "흑석동",
		"Latitude": "37.506042999999998",
		"Longitude": "126.9644369",
		"address": "서울특별시 동작구 흑석동 335-1번지"
	},
	{
		"name": "우리아이동물병원",
		"gu": "동작구",
		"dong": "상도동",
		"Latitude": "37.503800200000001",
		"Longitude": "126.9468978",
		"address": "서울특별시 동작구 상도동 34-18번지 1층 및 2층"
	},
	{
		"name": "흑석24시동물병원",
		"gu": "동작구",
		"dong": "흑석동",
		"Latitude": "37.508021300000003",
		"Longitude": "126.9639877",
		"address": "서울특별시 동작구 흑석동 6-5번지"
	},
	{
		"name": "상도힐링동물병원",
		"gu": "동작구",
		"dong": "상도동",
		"Latitude": "37.497247700000003",
		"Longitude": "126.95317590000001",
		"address": "서울특별시 동작구 상도동 486-7번지"
	},
	{
		"name": "보라매웰종합동물병원",
		"gu": "동작구",
		"dong": "대방동",
		"Latitude": "37.499685800000002",
		"Longitude": "126.92229330000001",
		"address": "서울특별시 동작구 대방동 401-21번지"
	},
	{
		"name": "지엔동물병원",
		"gu": "동작구",
		"dong": "상도동",
		"Latitude": "37.5052442",
		"Longitude": "126.9404081",
		"address": "서울특별시 동작구 상도동 373-55번지"
	},
	{
		"name": "중앙동물병원",
		"gu": "동작구",
		"dong": "흑석동",
		"Latitude": "37.507713899999999",
		"Longitude": "126.9645869",
		"address": "서울특별시 동작구 흑석동 8-32번지 1층"
	},
	{
		"name": "모범동물병원",
		"gu": "동작구",
		"dong": "사당동",
		"Latitude": "37.483668399999999",
		"Longitude": "126.9733358",
		"address": "서울특별시 동작구 사당동 265-12번지"
	},
	{
		"name": "사당동물병원",
		"gu": "동작구",
		"dong": "사당동",
		"Latitude": "37.476784199999997",
		"Longitude": "126.9766408",
		"address": "서울특별시 동작구 사당동 1047-44번지"
	},
	{
		"name": "나라동물병원",
		"gu": "동작구",
		"dong": "사당동",
		"Latitude": "37.484106300000001",
		"Longitude": "126.9791608",
		"address": "서울특별시 동작구 사당동 1003-27번지 43통3반"
	},
	{
		"name": "하나사랑동물병원",
		"gu": "동작구",
		"dong": "상도동",
		"Latitude": "37.504464599999999",
		"Longitude": "126.9379818",
		"address": "서울특별시 동작구 상도동 366-24번지"
	},
	{
		"name": "디아크동물종합병원",
		"gu": "동작구",
		"dong": "노량진동",
		"Latitude": "37.511645399999999",
		"Longitude": "126.9390259",
		"address": "서울특별시 동작구 노량진동 246-1번지"
	},
	{
		"name": "종합동물병원 Pet Together",
		"gu": "동작구",
		"dong": "상도동",
		"Latitude": "37.497715800000002",
		"Longitude": "126.9435012",
		"address": "서울특별시 동작구 상도동 210-124번지 지하1층"
	},
	{
		"name": "동물은내친구",
		"gu": "동작구",
		"dong": "사당동",
		"Latitude": "37.483103200000002",
		"Longitude": "126.9757948",
		"address": "서울특별시 동작구 사당동 321-114번지"
	},
	{
		"name": "강남동물병원",
		"gu": "동작구",
		"dong": "대방동",
		"Latitude": "37.511774199999998",
		"Longitude": "126.9253635",
		"address": "서울특별시 동작구 대방동 342-5번지"
	},
	{
		"name": "다나동물병원",
		"gu": "동작구",
		"dong": "사당동",
		"Latitude": "37.480878699999998",
		"Longitude": "126.98147160000001",
		"address": "서울특별시 동작구 사당동 1019-54번지 오사빌딩 1층"
	},
	{
		"name": "피닉스동물병원",
		"gu": "동작구",
		"dong": "대방동",
		"Latitude": "37.499969499999999",
		"Longitude": "126.92544340000001",
		"address": "서울특별시 동작구 대방동 395-4번지"
	},
	{
		"name": "연세동물병원",
		"gu": "관악구",
		"dong": "봉천동",
		"Latitude": "37.4797212",
		"Longitude": "126.9555867",
		"address": "서울특별시 관악구 봉천동 1601-23번지"
	},
	{
		"name": "초이스동물병원",
		"gu": "강북구",
		"dong": "수유동",
		"Latitude": "37.643380399999998",
		"Longitude": "127.0157037",
		"address": "서울특별시 강북구 수유동 340-2번지"
	},
	{
		"name": "VIP동물의료센터 서초동작점",
		"gu": "서초구",
		"dong": "방배동",
		"Latitude": "37.479634300000001",
		"Longitude": "126.98217940000001",
		"address": "서울특별시 서초구 방배동 442-3번지 대광빌딩 1"
	},
	{
		"name": "서울동물심장병원",
		"gu": "강남구",
		"dong": "역삼동",
		"Latitude": "37.506653",
		"Longitude": "127.04084899999999",
		"address": "서울특별시 강남구 역삼동 689-2번지 1층"
	},
	{
		"name": "올바른동물병원",
		"gu": "강동구",
		"dong": "암사동",
		"Latitude": "37.551507699999902",
		"Longitude": "127.1277099",
		"address": "서울특별시 강동구 암사동 503-23번지"
	},
	{
		"name": "포유동물병원",
		"gu": "성북구",
		"dong": "하월곡동",
		"Latitude": "37.604190199999998",
		"Longitude": "127.0376727",
		"address": "서울특별시 성북구 하월곡동 62-4번지"
	},
	{
		"name": "개와냥이동물병원",
		"gu": "은평구",
		"dong": "대조동",
		"Latitude": "37.610186300000002",
		"Longitude": "126.92917370000001",
		"address": "서울특별시 은평구 대조동 14-27번지 2층"
	},
	{
		"name": "바다동물병원(Bada Animal Hospital)",
		"gu": "용산구",
		"dong": "용산동",
		"Latitude": "37.524256700000002",
		"Longitude": "126.970731",
		"address": "서울특별시 용산구 용산동5가 24번지"
	},
	{
		"name": "금호동물병원",
		"gu": "성동구",
		"dong": "금호동",
		"Latitude": "37.551462999999998",
		"Longitude": "127.025425",
		"address": "서울특별시 성동구 금호동2가 1217번지 래미안하이리버 상가동 비201호"
	},
	{
		"name": "신당햇살동물병원",
		"gu": "성동구",
		"dong": "금호동",
		"Latitude": "37.557327899999997",
		"Longitude": "127.0243657",
		"address": "서울특별시 성동구 금호동1가 132-18번지 1층"
	},
	{
		"name": "대치동물의료센터",
		"gu": "강남구",
		"dong": "대치동",
		"Latitude": "37.4983997",
		"Longitude": "127.0583539",
		"address": "서울특별시 강남구 대치동 940-10번지 1층"
	},
	{
		"name": "마곡나무 동물병원",
		"gu": "강서구",
		"dong": "마곡동",
		"Latitude": "37.560232999999997",
		"Longitude": "126.819497",
		"address": "서울특별시 강서구 마곡동 747번지 1014동 103호"
	},
	{
		"name": "나을동물병원",
		"gu": "동작구",
		"dong": "사당동",
		"Latitude": "37.484885499999997",
		"Longitude": "126.9698976",
		"address": "서울특별시 동작구 사당동 248-5번지"
	},
	{
		"name": "디아크동물병원",
		"gu": "동대문구",
		"dong": "청량리동",
		"Latitude": "37.585920999999999",
		"Longitude": "127.043576",
		"address": "서울특별시 동대문구 청량리동 400번지"
	},
	{
		"name": "맑은 동물병원",
		"gu": "동대문구",
		"dong": "신설동",
		"Latitude": "37.571979399999996",
		"Longitude": "127.0238816",
		"address": "서울특별시 동대문구 신설동 109-13번지 청계천대성스카이렉스1 108호"
	},
	{
		"name": "그린동물병원",
		"gu": "동대문구",
		"dong": "용두동",
		"Latitude": "37.577145700000003",
		"Longitude": "127.03582470000001",
		"address": "서울특별시 동대문구 용두동 790번지 롯데캐슬피렌체 제1층 125호"
	},
	{
		"name": "제연동물병원",
		"gu": "동대문구",
		"dong": "전농동",
		"Latitude": "37.575032899999997",
		"Longitude": "127.0496055",
		"address": "서울특별시 동대문구 전농동 652-1번지"
	},
	{
		"name": "페트로동물의료원",
		"gu": "동대문구",
		"dong": "장안동",
		"Latitude": "37.570627000000002",
		"Longitude": "127.0706515",
		"address": "서울특별시 동대문구 장안동"
	},
	{
		"name": "하나동물병원",
		"gu": "동대문구",
		"dong": "휘경동",
		"Latitude": "37.589464499999998",
		"Longitude": "127.06093079999999",
		"address": "서울특별시 동대문구 휘경동 267-84번지"
	},
	{
		"name": "봄봄동물병원",
		"gu": "동대문구",
		"dong": "회기동",
		"Latitude": "37.5927753",
		"Longitude": "127.0519685",
		"address": "서울특별시 동대문구 회기동 62-8번지"
	},
	{
		"name": "심재웅동물병원",
		"gu": "동대문구",
		"dong": "휘경동",
		"Latitude": "37.591080099999999",
		"Longitude": "127.06649969999999",
		"address": "서울특별시 동대문구 휘경동 34-48번지"
	},
	{
		"name": "박철환동물병원",
		"gu": "동대문구",
		"dong": "장안동",
		"Latitude": "37.5788808",
		"Longitude": "127.0696884",
		"address": "서울특별시 동대문구 장안동 100-8 번지 105"
	},
	{
		"name": "뉴월드동물병원",
		"gu": "동대문구",
		"dong": "답십리동",
		"Latitude": "37.570805800000002",
		"Longitude": "127.0474461",
		"address": "서울특별시 동대문구 답십리동 465-55번지"
	},
	{
		"name": "그랜드동물병원",
		"gu": "동대문구",
		"dong": "답십리동",
		"Latitude": "37.572626799999902",
		"Longitude": "127.05765100000001",
		"address": "서울특별시 동대문구 답십리동 53-6번지"
	},
	{
		"name": "애니케어동물병원",
		"gu": "동대문구",
		"dong": "이문동",
		"Latitude": "37.594010900000001",
		"Longitude": "127.05886030000001",
		"address": "서울특별시 동대문구 이문동 324-3번지 2층"
	},
	{
		"name": "푸른종합동물병원",
		"gu": "동대문구",
		"dong": "청량리동",
		"Latitude": "37.588908000000004",
		"Longitude": "127.0445965",
		"address": "서울특별시 동대문구 청량리동"
	},
	{
		"name": "안암동물병원",
		"gu": "동대문구",
		"dong": "용두동",
		"Latitude": "37.5805243",
		"Longitude": "127.0267723",
		"address": "서울특별시 동대문구 용두동 732-5 번지"
	},
	{
		"name": "주주동물병원",
		"gu": "동대문구",
		"dong": "전농동",
		"Latitude": "37.5778143",
		"Longitude": "127.05846870000001",
		"address": "서울특별시 동대문구 전농동 38-24번지"
	},
	{
		"name": "다솜종합동물병원",
		"gu": "동대문구",
		"dong": "답십리동",
		"Latitude": "37.566658799999999",
		"Longitude": "127.055803",
		"address": "서울특별시 동대문구 답십리동 490-52번지 1층"
	},
	{
		"name": "24시수동물메디컬센터",
		"gu": "영등포구",
		"dong": "양평동",
		"Latitude": "37.522274099999997",
		"Longitude": "126.8911626",
		"address": "서울특별시 영등포구 양평동1가 28-3번지 1층"
	},
	{
		"name": "아람동물병원",
		"gu": "영등포구",
		"dong": "신길동",
		"Latitude": "37.512068300000003",
		"Longitude": "126.9159382",
		"address": "서울특별시 영등포구 신길동 162-10번지"
	},
	{
		"name": "이든동물의료센터",
		"gu": "영등포구",
		"dong": "당산동",
		"Latitude": "37.532064099999999",
		"Longitude": "126.9049998",
		"address": "서울특별시 영등포구 당산동5가 11-30번지 1"
	},
	{
		"name": "24시 루시드 동물메디컬센터",
		"gu": "강북구",
		"dong": "미아동",
		"Latitude": "37.609530499999998",
		"Longitude": "127.0306021",
		"address": "서울특별시 강북구 미아동 42-11번지 덕신빌딩 4층"
	},
	{
		"name": "다온동물병원",
		"gu": "성동구",
		"dong": "하왕십리동",
		"Latitude": "37.566505900000003",
		"Longitude": "127.0264404",
		"address": "서울특별시 성동구 하왕십리동 1070번지 센트라스 J동 135호"
	},
	{
		"name": "더조은 동물의료센터",
		"gu": "금천구",
		"dong": "시흥동",
		"Latitude": "37.449476900000001",
		"Longitude": "126.90329920000001",
		"address": "서울특별시 금천구 시흥동 904-6번지 서우빌딩"
	},
	{
		"name": "드림동물병원",
		"gu": "구로구",
		"dong": "고척동",
		"Latitude": "37.502846099999999",
		"Longitude": "126.8632325",
		"address": "서울특별시 구로구 고척동 343번지 고척 월드메르디앙"
	},
	{
		"name": "신세계 동물병원",
		"gu": "서초구",
		"dong": "반포동",
		"Latitude": "37.504959399999997",
		"Longitude": "126.9999969",
		"address": "서울특별시 서초구 반포동 1-8번지 경남쇼핑센터 108호"
	},
	{
		"name": "햇살아래 동물병원",
		"gu": "서초구",
		"dong": "우면동",
		"Latitude": "37.465195899999998",
		"Longitude": "127.01644229999999",
		"address": "서울특별시 서초구 우면동 725번지 네이처프라자 203호"
	},
	{
		"name": "H 동물병원",
		"gu": "강북구",
		"dong": "미아동",
		"Latitude": "37.614212299999998",
		"Longitude": "127.03402319999999",
		"address": "서울특별시 강북구 미아동 811-9번지 위브테라스파크 207호"
	},
	{
		"name": "오석헌동물병원",
		"gu": "성동구",
		"dong": "옥수동",
		"Latitude": "37.545149199999997",
		"Longitude": "127.0141611",
		"address": "서울특별시 성동구 옥수동 561번지 래미안옥수리버젠 상가동 420호"
	},
	{
		"name": "제인동물병원",
		"gu": "성동구",
		"dong": "성수동",
		"Latitude": "37.5389889",
		"Longitude": "127.0547093",
		"address": "서울특별시 성동구 성수동2가 339-23번지"
	},
	{
		"name": "로얄 도그앤캣 메디컬센터",
		"gu": "광진구",
		"dong": "자양동",
		"Latitude": "37.535808899999999",
		"Longitude": "127.0684009",
		"address": "서울특별시 광진구 자양동 550-1번지"
	},
	{
		"name": "케이나인종합동물병원",
		"gu": "구로구",
		"dong": "개봉동",
		"Latitude": "37.4891419",
		"Longitude": "126.8563657",
		"address": "서울특별시 구로구 개봉동 403-143번지"
	},
	{
		"name": "신도림동물병원",
		"gu": "구로구",
		"dong": "신도림동",
		"Latitude": "37.509429099999998",
		"Longitude": "126.8876466",
		"address": "서울특별시 구로구 신도림동 337번지 신도림1차푸르지오아파트 101동 139호"
	},
	{
		"name": "해피동물병원",
		"gu": "구로구",
		"dong": "고척동",
		"Latitude": "37.503519400000002",
		"Longitude": "126.86165320000001",
		"address": "서울특별시 구로구 고척동 50-95번지"
	},
	{
		"name": "굿모닝 동물병원",
		"gu": "구로구",
		"dong": "개봉동",
		"Latitude": "37.496616699999997",
		"Longitude": "126.8561624",
		"address": "서울특별시 구로구 개봉동 353-15번지"
	},
	{
		"name": "한샘종합동물병원",
		"gu": "구로구",
		"dong": "개봉동",
		"Latitude": "37.4964388",
		"Longitude": "126.8590964",
		"address": "서울특별시 구로구 개봉동 170-33번지"
	},
	{
		"name": "쿨펫동물병원",
		"gu": "구로구",
		"dong": "구로동",
		"Latitude": "37.498252899999997",
		"Longitude": "126.87273810000001",
		"address": "서울특별시 구로구 구로동 636-89번지"
	},
	{
		"name": "푸른동물병원",
		"gu": "구로구",
		"dong": "구로동",
		"Latitude": "37.488543100000001",
		"Longitude": "126.8843047",
		"address": "서울특별시 구로구 구로동 722-4번지"
	},
	{
		"name": "해원종합동물병원",
		"gu": "구로구",
		"dong": "구로동",
		"Latitude": "37.495027299999997",
		"Longitude": "126.872004",
		"address": "서울특별시 구로구 구로동 642-108번지 해원리버파크 105호"
	},
	{
		"name": "구로종합동물병원",
		"gu": "구로구",
		"dong": "신도림동",
		"Latitude": "37.506905199999999",
		"Longitude": "126.88638400000001",
		"address": "서울특별시 구로구 신도림동 432-1번지 sk 뷰 101동 103호"
	},
	{
		"name": "캥거루 동물병원",
		"gu": "구로구",
		"dong": "오류동",
		"Latitude": "37.489788300000001",
		"Longitude": "126.83977640000001",
		"address": "서울특별시 구로구 오류동 166-9"
	},
	{
		"name": "아이러브펫동물병원(신도림점)",
		"gu": "구로구",
		"dong": "신도림동",
		"Latitude": "37.509587500000002",
		"Longitude": "126.8875948",
		"address": "서울특별시 구로구 신도림동 337번지 홈플러스 신도림점 지하1층"
	},
	{
		"name": "벨라동물병원",
		"gu": "구로구",
		"dong": "구로동",
		"Latitude": "37.500538800000001",
		"Longitude": "126.8846046",
		"address": "서울특별시 구로구 구로동 501-12번지"
	},
	{
		"name": "안정택동물병원",
		"gu": "구로구",
		"dong": "오류동",
		"Latitude": "37.485866600000001",
		"Longitude": "126.83881599999999",
		"address": "서울특별시 구로구 오류동 176번지"
	},
	{
		"name": "오류동물병원",
		"gu": "구로구",
		"dong": "오류동",
		"Latitude": "37.497043499999997",
		"Longitude": "126.8465908",
		"address": "서울특별시 구로구 오류동 33-40번지"
	},
	{
		"name": "사랑동물병원",
		"gu": "구로구",
		"dong": "구로동",
		"Latitude": "37.490818399999903",
		"Longitude": "126.8939041",
		"address": "서울특별시 구로구 구로동 152-6번지"
	},
	{
		"name": "개명동물병원",
		"gu": "구로구",
		"dong": "개봉동",
		"Latitude": "37.4900892",
		"Longitude": "126.8563049",
		"address": "서울특별시 구로구 개봉동 403-141번지"
	},
	{
		"name": "금강종합동물병원",
		"gu": "구로구",
		"dong": "오류동",
		"Latitude": "37.495341600000003",
		"Longitude": "126.8429191",
		"address": "서울특별시 구로구 오류동 48-1번지"
	},
	{
		"name": "라라동물의료원",
		"gu": "구로구",
		"dong": "구로동",
		"Latitude": "37.489306200000001",
		"Longitude": "126.8916581",
		"address": "서울특별시 구로구 구로동 309-2번지 지하1층"
	},
	{
		"name": "지구촌 동물종합병원",
		"gu": "구로구",
		"dong": "구로동",
		"Latitude": "37.499230099999998",
		"Longitude": "126.8848469",
		"address": "서울특별시 구로구 구로동 519-4번지"
	},
	{
		"name": "개봉동물병원",
		"gu": "구로구",
		"dong": "고척동",
		"Latitude": "37.503395699999999",
		"Longitude": "126.8511087",
		"address": "서울특별시 구로구 고척동 265-4번지 28통8반"
	},
	{
		"name": "제일종합동물병원",
		"gu": "금천구",
		"dong": "시흥동",
		"Latitude": "37.452526200000001",
		"Longitude": "126.90623050000001",
		"address": "서울특별시 금천구 시흥동 837-37번지"
	},
	{
		"name": "은행나무종합동물병원",
		"gu": "금천구",
		"dong": "시흥동",
		"Latitude": "37.451570400000001",
		"Longitude": "126.9071316",
		"address": "서울특별시 금천구 시흥동 909-5번지"
	},
	{
		"name": "조정연동물병원",
		"gu": "금천구",
		"dong": "시흥동",
		"Latitude": "37.4525535",
		"Longitude": "126.9057724",
		"address": "서울특별시 금천구 시흥동 838-33번지"
	},
	{
		"name": "그린동물병원",
		"gu": "금천구",
		"dong": "독산동",
		"Latitude": "37.470938099999998",
		"Longitude": "126.9032072",
		"address": "서울특별시 금천구 독산동 193-31번지"
	},
	{
		"name": "금천동물병원",
		"gu": "금천구",
		"dong": "독산동",
		"Latitude": "37.463787500000002",
		"Longitude": "126.9035095",
		"address": "서울특별시 금천구 독산동 378-397번지"
	},
	{
		"name": "파랑새동물병원",
		"gu": "금천구",
		"dong": "독산동",
		"Latitude": "37.458272200000003",
		"Longitude": "126.8995402",
		"address": "서울특별시 금천구 독산동 1077-31번지"
	},
	{
		"name": "도그플러스동물병원",
		"gu": "금천구",
		"dong": "독산동",
		"Latitude": "37.468649300000003",
		"Longitude": "126.89681059999999",
		"address": "서울특별시 금천구 독산동 291-7번지"
	},
	{
		"name": "노아동물병원",
		"gu": "금천구",
		"dong": "시흥동",
		"Latitude": "37.450171599999997",
		"Longitude": "126.9125588",
		"address": "서울특별시 금천구 시흥동 262-6번지"
	},
	{
		"name": "쿨펫동물병원",
		"gu": "금천구",
		"dong": "독산동",
		"Latitude": "37.4643199",
		"Longitude": "126.8936435",
		"address": "서울특별시 금천구 독산동 102-12번지 9통9반"
	},
	{
		"name": "우리동물메디컬센터",
		"gu": "금천구",
		"dong": "독산동",
		"Latitude": "37.479679699999998",
		"Longitude": "126.90472680000001",
		"address": "서울특별시 금천구 독산동 950-3번지"
	},
	{
		"name": "푸른숲 동물병원",
		"gu": "마포구",
		"dong": "서교동",
		"Latitude": "37.557350399999997",
		"Longitude": "126.90925110000001",
		"address": "서울특별시 마포구 서교동 5-2번지"
	},
	{
		"name": "여의도동물병원은하점",
		"gu": "영등포구",
		"dong": "여의도동",
		"Latitude": "37.5186998",
		"Longitude": "126.9335346",
		"address": "서울특별시 영등포구 여의도동 53-3번지 미라클빌딩 4층"
	},
	{
		"name": "여의도동물병원대교점",
		"gu": "영등포구",
		"dong": "여의도동",
		"Latitude": "37.521019600000002",
		"Longitude": "126.934298",
		"address": "서울특별시 영등포구 여의도동 41-2번지 113호"
	},
	{
		"name": "이재풍동물병원",
		"gu": "송파구",
		"dong": "오금동",
		"Latitude": "37.506426599999998",
		"Longitude": "127.1292244",
		"address": "서울특별시 송파구 오금동 39-1번지 (지상1층)"
	},
	{
		"name": "영국동물병원",
		"gu": "송파구",
		"dong": "가락동",
		"Latitude": "37.494183199999902",
		"Longitude": "127.13304530000001",
		"address": "서울특별시 송파구 가락동 190-6번지"
	},
	{
		"name": "희망종합동물병원",
		"gu": "송파구",
		"dong": "잠실동",
		"Latitude": "37.511408500000002",
		"Longitude": "127.0804669",
		"address": "서울특별시 송파구 잠실동 175-12번지 효성올림픽카운티2 101호"
	},
	{
		"name": "노아동물병원",
		"gu": "송파구",
		"dong": "거여동",
		"Latitude": "37.492953",
		"Longitude": "127.14387720000001",
		"address": "서울특별시 송파구 거여동 562-4번지"
	},
	{
		"name": "김민재동물병원",
		"gu": "송파구",
		"dong": "오금동",
		"Latitude": "37.503661100000002",
		"Longitude": "127.1386643",
		"address": "서울특별시 송파구 오금동 120-7번지"
	},
	{
		"name": "박경호동물병원",
		"gu": "송파구",
		"dong": "방이동",
		"Latitude": "37.516344599999996",
		"Longitude": "127.11036850000001",
		"address": "서울특별시 송파구 방이동 35-9번지"
	},
	{
		"name": "위드펫종합동물병원",
		"gu": "송파구",
		"dong": "잠실동",
		"Latitude": "37.505444099999998",
		"Longitude": "127.0848312",
		"address": "서울특별시 송파구 잠실동 234-17번지"
	},
	{
		"name": "가락종합동물병원",
		"gu": "송파구",
		"dong": "방이동",
		"Latitude": "37.5062864",
		"Longitude": "127.1208822",
		"address": "서울특별시 송파구 방이동 226-7번지"
	},
	{
		"name": "동물의왕국동물병원",
		"gu": "송파구",
		"dong": "마천동",
		"Latitude": "37.4982902",
		"Longitude": "127.1462829",
		"address": "서울특별시 송파구 마천동 35번지"
	},
	{
		"name": "늘푸른동물병원",
		"gu": "송파구",
		"dong": "오금동",
		"Latitude": "37.509495899999997",
		"Longitude": "127.12719010000001",
		"address": "서울특별시 송파구 오금동 17-2번지"
	},
	{
		"name": "준동물병원",
		"gu": "송파구",
		"dong": "오금동",
		"Latitude": "37.510182999999998",
		"Longitude": "127.13068060000001",
		"address": "서울특별시 송파구 오금동 3번지"
	},
	{
		"name": "준동물병원",
		"gu": "송파구",
		"dong": "오금동",
		"Latitude": "37.508617100000002",
		"Longitude": "127.13400489999999",
		"address": "서울특별시 송파구 오금동 95-1번지 (지상1층)"
	},
	{
		"name": "에버펫 동물병원",
		"gu": "송파구",
		"dong": "가락동",
		"Latitude": "37.496727900000003",
		"Longitude": "127.1367558",
		"address": "서울특별시 송파구 가락동 175-14번지 지상1층"
	},
	{
		"name": "송이종합동물병원",
		"gu": "송파구",
		"dong": "송파동",
		"Latitude": "37.502560500000001",
		"Longitude": "127.1170138",
		"address": "서울특별시 송파구 송파동 164-7번지"
	},
	{
		"name": "호수동물병원",
		"gu": "송파구",
		"dong": "송파동",
		"Latitude": "37.511516100000001",
		"Longitude": "127.1085695",
		"address": "서울특별시 송파구 송파동 58-4번지 한진로즈힐레이크 105호"
	},
	{
		"name": "두리동물병원",
		"gu": "송파구",
		"dong": "마천동",
		"Latitude": "37.499482899999997",
		"Longitude": "127.15311610000001",
		"address": "서울특별시 송파구 마천동 161-2번지"
	},
	{
		"name": "한양종합동물병원",
		"gu": "송파구",
		"dong": "송파동",
		"Latitude": "37.5031933",
		"Longitude": "127.11343460000001",
		"address": "서울특별시 송파구 송파동 103-29번지 (지상1층)"
	},
	{
		"name": "갤러리아동물병원",
		"gu": "송파구",
		"dong": "잠실동",
		"Latitude": "37.511396099999999",
		"Longitude": "127.0939363",
		"address": "서울특별시 송파구 잠실동 40번지 갤러리아팰리스상가 124호"
	},
	{
		"name": "닥터표동물병원",
		"gu": "강동구",
		"dong": "성내동",
		"Latitude": "37.532063200000003",
		"Longitude": "127.1214215",
		"address": "서울특별시 강동구 성내동 322-7번지 1층"
	},
	{
		"name": "봄빛 동물병원",
		"gu": "송파구",
		"dong": "가락동",
		"Latitude": "37.492003699999998",
		"Longitude": "127.1260932",
		"address": "서울특별시 송파구 가락동 125-8번지 상이빌딩1층"
	},
	{
		"name": "유앤동물의료원",
		"gu": "송파구",
		"dong": "오금동",
		"Latitude": "37.502989499999998",
		"Longitude": "127.1278734",
		"address": "서울특별시 송파구 오금동"
	},
	{
		"name": "이리온 동물의료원",
		"gu": "송파구",
		"dong": "송파동",
		"Latitude": "37.508665899999997",
		"Longitude": "127.1144659",
		"address": "서울특별시 송파구 송파동 141-2번지"
	},
	{
		"name": "24시잠실ON동물병원",
		"gu": "송파구",
		"dong": "잠실동",
		"Latitude": "37.511520900000001",
		"Longitude": "127.0791737",
		"address": "서울특별시 송파구 잠실동 175-6번지 잠실J타워 202호"
	},
	{
		"name": "대치수동물병원",
		"gu": "강남구",
		"dong": "대치동",
		"Latitude": "37.495156199999997",
		"Longitude": "127.0639632",
		"address": "서울특별시 강남구 대치동 316번지 1통2반 은마상가 1층 B120"
	},
	{
		"name": "연서동물종합병원",
		"gu": "은평구",
		"dong": "대조동",
		"Latitude": "37.613168100000003",
		"Longitude": "126.9178498",
		"address": "서울특별시 은평구 대조동 223-13번지"
	},
	{
		"name": "올댓동물병원",
		"gu": "중구",
		"dong": "신당동",
		"Latitude": "37.553894300000003",
		"Longitude": "127.0091395",
		"address": "서울특별시 중구 신당동 432-90번지"
	},
	{
		"name": "태일동물종합병원",
		"gu": "도봉구",
		"dong": "쌍문동",
		"Latitude": "37.6578862",
		"Longitude": "127.0363476",
		"address": "서울특별시 도봉구 쌍문동 45-8번지"
	},
	{
		"name": "더블유동물병원",
		"gu": "관악구",
		"dong": "봉천동",
		"Latitude": "37.487019400000001",
		"Longitude": "126.94470800000001",
		"address": "서울특별시 관악구 봉천동 622-74번지"
	},
	{
		"name": "디엠씨(DMC)동물병원",
		"gu": "은평구",
		"dong": "수색동",
		"Latitude": "37.579694600000003",
		"Longitude": "126.89861809999999",
		"address": "서울특별시 은평구 수색동 75번지 디엠씨 자이1단지(DMC 자이1) 107호"
	},
	{
		"name": "유케어종합동물병원",
		"gu": "동작구",
		"dong": "상도동",
		"Latitude": "37.504969199999998",
		"Longitude": "126.94239349999999",
		"address": "서울특별시 동작구 상도동 27-12번지 성은빌딩"
	},
	{
		"name": "보람동물병원",
		"gu": "성북구",
		"dong": "상월곡동",
		"Latitude": "37.605929000000003",
		"Longitude": "127.0451954",
		"address": "서울특별시 성북구 상월곡동 57-3번지 대성빌딩 1층"
	},
	{
		"name": "사랑동물병원",
		"gu": "영등포구",
		"dong": "양평동",
		"Latitude": "37.526802699999998",
		"Longitude": "126.8918333",
		"address": "서울특별시 영등포구 양평동3가 46번지 이앤씨드림타워 102호"
	},
	{
		"name": "서서울동물병원",
		"gu": "강서구",
		"dong": "염창동",
		"Latitude": "37.551228199999997",
		"Longitude": "126.8711315",
		"address": "서울특별시 강서구 염창동 265-23번지 9"
	},
	{
		"name": "신천동물병원",
		"gu": "송파구",
		"dong": "잠실동",
		"Latitude": "37.507596999999997",
		"Longitude": "127.0888326",
		"address": "서울특별시 송파구 잠실동 242-4번지 리치빌딩"
	},
	{
		"name": "송파데일리동물병원",
		"gu": "송파구",
		"dong": "문정동",
		"Latitude": "37.479991200000001",
		"Longitude": "127.1224811",
		"address": "서울특별시 송파구 문정동 624번지 송파아이파크 E존 204호"
	},
	{
		"name": "양지가축동물병원",
		"gu": "강동구",
		"dong": "길동",
		"Latitude": "37.535356399999998",
		"Longitude": "127.1444722",
		"address": "서울특별시 강동구 길동 402-10번지 102호"
	},
	{
		"name": "하이유 동물병원",
		"gu": "동대문구",
		"dong": "답십리동",
		"Latitude": "37.566613199999999",
		"Longitude": "127.05585000000001",
		"address": "서울특별시 동대문구 답십리동 490-57번지"
	},
	{
		"name": "위례S동물의료센터",
		"gu": "송파구",
		"dong": "장지동",
		"Latitude": "37.485089199999997",
		"Longitude": "127.1332182",
		"address": "서울특별시 송파구 장지동 881-5번지 에스비트램스퀘어 203"
	},
	{
		"name": "러브펫동물병원 중계점",
		"gu": "노원구",
		"dong": "중계동",
		"Latitude": "37.639860800000001",
		"Longitude": "127.0685697",
		"address": "서울특별시 노원구 중계동 509-2번지 홈플러스"
	},
	{
		"name": "24시OK동물병원",
		"gu": "강남구",
		"dong": "대치동",
		"Latitude": "37.499877599999998",
		"Longitude": "127.051492",
		"address": "서울특별시 강남구 대치동 921번지 오성빌딩 1"
	},
	{
		"name": "웰니스동물병원(롯데월드점)",
		"gu": "송파구",
		"dong": "잠실동",
		"Latitude": "37.511182599999998",
		"Longitude": "127.0977372",
		"address": "서울특별시 송파구 잠실동 40-1번지 롯데월드1층 S-911호"
	},
	{
		"name": "대학로동물병원",
		"gu": "종로구",
		"dong": "명륜2가",
		"Latitude": "37.583662400000001",
		"Longitude": "127.00064860000001",
		"address": "서울특별시 종로구 명륜2가 5-99번지 1통3반 방산빌라 402호"
	},
	{
		"name": "해동물병원",
		"gu": "종로구",
		"dong": "창신동",
		"Latitude": "37.5748642",
		"Longitude": "127.0155003",
		"address": "서울특별시 종로구 창신동 80-1번지"
	},
	{
		"name": "북악동물병원",
		"gu": "종로구",
		"dong": "홍지동",
		"Latitude": "37.598840099999997",
		"Longitude": "126.960261",
		"address": "서울특별시 종로구 홍지동 127-7번지 5통5반 지층 3호"
	},
	{
		"name": "올리브동물병원",
		"gu": "종로구",
		"dong": "홍지동",
		"Latitude": "37.599235",
		"Longitude": "126.9589611",
		"address": "서울특별시 종로구 홍지동 126-8번지"
	},
	{
		"name": "평창동물병원",
		"gu": "종로구",
		"dong": "평창동",
		"Latitude": "37.617313799999998",
		"Longitude": "126.9752865",
		"address": "서울특별시 종로구 평창동 402-17번지 14통2반 세방테크빌 504호"
	},
	{
		"name": "우리동물병원",
		"gu": "종로구",
		"dong": "숭인동",
		"Latitude": "37.578666699999999",
		"Longitude": "127.0156223",
		"address": "서울특별시 종로구 숭인동 52-8번지"
	},
	{
		"name": "누리봄동물병원",
		"gu": "종로구",
		"dong": "내자동",
		"Latitude": "37.575753900000002",
		"Longitude": "126.9710573",
		"address": "서울특별시 종로구 내자동 125-3번지"
	},
	{
		"name": "효자동물병원",
		"gu": "종로구",
		"dong": "효자동",
		"Latitude": "37.5837705",
		"Longitude": "126.9692124",
		"address": "서울특별시 종로구 효자동 31번지"
	},
	{
		"name": "월드펫동물병원",
		"gu": "종로구",
		"dong": "신영동",
		"Latitude": "37.606249599999998",
		"Longitude": "126.9605056",
		"address": "서울특별시 종로구 신영동 249-6번지"
	},
	{
		"name": "스머프동물병원",
		"gu": "은평구",
		"dong": "응암동",
		"Latitude": "37.5980323",
		"Longitude": "126.92490770000001",
		"address": "서울특별시 은평구 응암동 194-25번지"
	},
	{
		"name": "메인동물메디컬센터",
		"gu": "노원구",
		"dong": "공릉동",
		"Latitude": "37.621662399999998",
		"Longitude": "127.0738521",
		"address": "서울특별시 노원구 공릉동 576-23번지"
	},
	{
		"name": "응암동물병원",
		"gu": "은평구",
		"dong": "응암동",
		"Latitude": "37.5952348",
		"Longitude": "126.91831790000001",
		"address": "서울특별시 은평구 응암동 119-17번지"
	},
	{
		"name": "김정복동물병원",
		"gu": "은평구",
		"dong": "갈현동",
		"Latitude": "37.621349500000001",
		"Longitude": "126.9195345",
		"address": "서울특별시 은평구 갈현동 394-19번지"
	},
	{
		"name": "불광동물병원",
		"gu": "은평구",
		"dong": "불광동",
		"Latitude": "37.611246700000002",
		"Longitude": "126.9297588",
		"address": "서울특별시 은평구 불광동 274-10번지"
	},
	{
		"name": "한얼동물병원",
		"gu": "은평구",
		"dong": "응암동",
		"Latitude": "37.592007899999999",
		"Longitude": "126.91789350000001",
		"address": "서울특별시 은평구 응암동 576-25번지"
	},
	{
		"name": "늘푸른동물병원",
		"gu": "은평구",
		"dong": "신사동",
		"Latitude": "37.598227299999998",
		"Longitude": "126.9109953",
		"address": "서울특별시 은평구 신사동 20-24번지"
	},
	{
		"name": "녹번동물병원",
		"gu": "은평구",
		"dong": "녹번동",
		"Latitude": "37.608007399999998",
		"Longitude": "126.931631",
		"address": "서울특별시 은평구 녹번동 117-112번지"
	},
	{
		"name": "오거리동물병원",
		"gu": "은평구",
		"dong": "응암동",
		"Latitude": "37.5907719",
		"Longitude": "126.91594910000001",
		"address": "서울특별시 은평구 응암동 589-12번지 2층"
	},
	{
		"name": "LOVE MY PET 동물병원",
		"gu": "은평구",
		"dong": "응암동",
		"Latitude": "37.601025300000003",
		"Longitude": "126.93073649999999",
		"address": "서울특별시 은평구 응암동 74-14번지"
	},
	{
		"name": "미래동물병원",
		"gu": "은평구",
		"dong": "갈현동",
		"Latitude": "37.613722600000003",
		"Longitude": "126.9123019",
		"address": "서울특별시 은평구 갈현동 498-3번지"
	},
	{
		"name": "더독동물병원",
		"gu": "은평구",
		"dong": "대조동",
		"Latitude": "37.611308600000001",
		"Longitude": "126.91758110000001",
		"address": "서울특별시 은평구 대조동 224-24번지"
	},
	{
		"name": "금쪽같은내새끼 동물병원",
		"gu": "은평구",
		"dong": "갈현동",
		"Latitude": "37.615317500000003",
		"Longitude": "126.9178005",
		"address": "서울특별시 은평구 갈현동 462-25번지"
	},
	{
		"name": "한마음동물병원",
		"gu": "은평구",
		"dong": "신사동",
		"Latitude": "37.600906100000003",
		"Longitude": "126.9101205",
		"address": "서울특별시 은평구 신사동 9-34번지"
	},
	{
		"name": "우신동물병원",
		"gu": "은평구",
		"dong": "역촌동",
		"Latitude": "37.605555299999999",
		"Longitude": "126.9156825",
		"address": "서울특별시 은평구 역촌동 22-49번지 101호"
	},
	{
		"name": "메디펫동물병원",
		"gu": "은평구",
		"dong": "갈현동",
		"Latitude": "37.621956500000003",
		"Longitude": "126.9195031",
		"address": "서울특별시 은평구 갈현동 394-27번지"
	},
	{
		"name": "한수24시동물병원",
		"gu": "은평구",
		"dong": "응암동",
		"Latitude": "37.599597899999999",
		"Longitude": "126.9214097",
		"address": "서울특별시 은평구 응암동 109-3번지 상가동 101호"
	},
	{
		"name": "로얄동물병원",
		"gu": "은평구",
		"dong": "구산동",
		"Latitude": "37.611603299999999",
		"Longitude": "126.91112649999999",
		"address": "서울특별시 은평구 구산동 1-1번지"
	},
	{
		"name": "은평동물병원",
		"gu": "은평구",
		"dong": "대조동",
		"Latitude": "37.607452500000001",
		"Longitude": "126.9221367",
		"address": "서울특별시 은평구 대조동 179-16번지"
	},
	{
		"name": "야옹동물병원",
		"gu": "은평구",
		"dong": "응암동",
		"Latitude": "37.596942800000001",
		"Longitude": "126.9200495",
		"address": "서울특별시 은평구 응암동 107-12번지"
	},
	{
		"name": "예스동물병원",
		"gu": "은평구",
		"dong": "녹번동",
		"Latitude": "37.607781000000003",
		"Longitude": "126.93190370000001",
		"address": "서울특별시 은평구 녹번동 117-88번지"
	},
	{
		"name": "한빛동물병원",
		"gu": "은평구",
		"dong": "진관동",
		"Latitude": "37.644209799999999",
		"Longitude": "126.9288736",
		"address": "서울특별시 은평구 진관동 5번지 은평뉴타운상림마을 629동 116호"
	},
	{
		"name": "Dr.윤24시동물병원",
		"gu": "은평구",
		"dong": "대조동",
		"Latitude": "37.616520899999998",
		"Longitude": "126.9231826",
		"address": "서울특별시 은평구 대조동 187-24번지"
	},
	{
		"name": "뉴타운동물병원",
		"gu": "은평구",
		"dong": "진관동",
		"Latitude": "37.642233399999903",
		"Longitude": "126.92311429999999",
		"address": "서울특별시 은평구 진관동 20번지 상림마을 821동 101호"
	},
	{
		"name": "도그원 동물의료센터",
		"gu": "은평구",
		"dong": "갈현동",
		"Latitude": "37.619563999999997",
		"Longitude": "126.9177038",
		"address": "서울특별시 은평구 갈현동 431-5번지 지층"
	},
	{
		"name": "24시스마트동물메디컬센터",
		"gu": "은평구",
		"dong": "응암동",
		"Latitude": "37.599745200000001",
		"Longitude": "126.9181133",
		"address": "서울특별시 은평구 응암동 91-5번지"
	},
	{
		"name": "스머프동물병원",
		"gu": "은평구",
		"dong": "응암동",
		"Latitude": "37.598185100000002",
		"Longitude": "126.9250675",
		"address": "서울특별시 은평구 응암동 194-23번지"
	},
	{
		"name": "다루동물병원",
		"gu": "은평구",
		"dong": "불광동",
		"Latitude": "37.612208899999999",
		"Longitude": "126.93213040000001",
		"address": "서울특별시 은평구 불광동 554-1번지 1층"
	},
	{
		"name": "도담동물병원",
		"gu": "은평구",
		"dong": "역촌동",
		"Latitude": "37.6056782",
		"Longitude": "126.9111302",
		"address": "서울특별시 은평구 역촌동 51-22번지"
	},
	{
		"name": "넬 동물의료센터",
		"gu": "성북구",
		"dong": "하월곡동",
		"Latitude": "37.608778899999997",
		"Longitude": "127.0357595",
		"address": "서울특별시 성북구 하월곡동 76-16번지"
	},
	{
		"name": "어울림동물병원",
		"gu": "서대문구",
		"dong": "남가좌동",
		"Latitude": "37.5733058",
		"Longitude": "126.91893399999999",
		"address": "서울특별시 서대문구 남가좌동 124-1번지"
	},
	{
		"name": "해치동물병원",
		"gu": "성동구",
		"dong": "응봉동",
		"Latitude": "37.551589300000003",
		"Longitude": "127.0330269",
		"address": "서울특별시 성동구 응봉동 100번지 308호"
	},
	{
		"name": "신림종합동물병원",
		"gu": "관악구",
		"dong": "신림동",
		"Latitude": "37.462617600000002",
		"Longitude": "126.9383251",
		"address": "서울특별시 관악구 신림동 395-53번지"
	},
	{
		"name": "러브펫종합동물병원",
		"gu": "관악구",
		"dong": "신림동",
		"Latitude": "37.462617600000002",
		"Longitude": "126.9383251",
		"address": "서울특별시 관악구 신림동 543-7번지"
	},
	{
		"name": "행복한동물병원",
		"gu": "관악구",
		"dong": "봉천동",
		"Latitude": "37.486854699999903",
		"Longitude": "126.94876739999999",
		"address": "서울특별시 관악구 봉천동 464-38번지"
	},
	{
		"name": "늘푸른동물병원",
		"gu": "관악구",
		"dong": "신림동",
		"Latitude": "37.462617600000002",
		"Longitude": "126.9383251",
		"address": "서울특별시 관악구 신림동 727-21번지"
	},
	{
		"name": "세계로동물병원",
		"gu": "관악구",
		"dong": "신림동",
		"Latitude": "37.462617600000002",
		"Longitude": "126.9383251",
		"address": "서울특별시 관악구 신림동 526-9번지"
	},
	{
		"name": "와우종합동물병원",
		"gu": "관악구",
		"dong": "신림동",
		"Latitude": "37.462617600000002",
		"Longitude": "126.9383251",
		"address": "서울특별시 관악구 신림동 763-20번지"
	},
	{
		"name": "로잔동물병원",
		"gu": "관악구",
		"dong": "봉천동",
		"Latitude": "37.4863675",
		"Longitude": "126.956418",
		"address": "서울특별시 관악구 봉천동 40-29번지 수안빌딩"
	},
	{
		"name": "서울허브동물병원",
		"gu": "관악구",
		"dong": "봉천동",
		"Latitude": "37.481705400000003",
		"Longitude": "126.9514243",
		"address": "서울특별시 관악구 봉천동 870-13번지 신원메트로빌"
	},
	{
		"name": "서진동물병원",
		"gu": "관악구",
		"dong": "신림동",
		"Latitude": "37.489130000000003",
		"Longitude": "126.9275346",
		"address": "서울특별시 관악구 신림동 1429-2번지"
	},
	{
		"name": "프렌즈동물병원",
		"gu": "관악구",
		"dong": "봉천동",
		"Latitude": "37.484802700000003",
		"Longitude": "126.9551282",
		"address": "서울특별시 관악구 봉천동 34-51번지"
	},
	{
		"name": "고려동물병원",
		"gu": "관악구",
		"dong": "신림동",
		"Latitude": "37.462617600000002",
		"Longitude": "126.9383251",
		"address": "서울특별시 관악구 신림동 1655-23번지"
	},
	{
		"name": "예일동물병원",
		"gu": "관악구",
		"dong": "신림동",
		"Latitude": "37.489223600000003",
		"Longitude": "126.92722000000001",
		"address": "서울특별시 관악구 신림동 1429-3번지"
	},
	{
		"name": "닥터킴 동물병원",
		"gu": "관악구",
		"dong": "봉천동",
		"Latitude": "37.487079399999999",
		"Longitude": "126.94627319999999",
		"address": "서울특별시 관악구 봉천동 498-7번지 공원빌딩"
	},
	{
		"name": "관악동물종합병원",
		"gu": "관악구",
		"dong": "봉천동",
		"Latitude": "37.480098599999998",
		"Longitude": "126.9564871",
		"address": "서울특별시 관악구 봉천동 1665-4번지"
	},
	{
		"name": "서울대학교 수의과대학 동물병원",
		"gu": "관악구",
		"dong": "신림동",
		"Latitude": "37.486344000000003",
		"Longitude": "126.92754050000001",
		"address": "서울특별시 관악구 신림동 149번지"
	},
	{
		"name": "나눔동물병원",
		"gu": "관악구",
		"dong": "봉천동",
		"Latitude": "37.475474499999997",
		"Longitude": "126.96685429999999",
		"address": "서울특별시 관악구 봉천동 1656-22번지"
	},
	{
		"name": "아이러브펫동물병원",
		"gu": "관악구",
		"dong": "남현동",
		"Latitude": "37.471605400000001",
		"Longitude": "126.98295419999999",
		"address": "서울특별시 관악구 남현동 612-51번지 남현프라자"
	},
	{
		"name": "비타민동물병원",
		"gu": "관악구",
		"dong": "봉천동",
		"Latitude": "37.4740258",
		"Longitude": "126.96636100000001",
		"address": "서울특별시 관악구 봉천동 1638-24번지"
	},
	{
		"name": "세계로 고양이 전문의료센터",
		"gu": "관악구",
		"dong": "신림동",
		"Latitude": "37.462617600000002",
		"Longitude": "126.9383251",
		"address": "서울특별시 관악구 신림동 526-9번지"
	},
	{
		"name": "보라매동물병원",
		"gu": "관악구",
		"dong": "봉천동",
		"Latitude": "37.489603299999999",
		"Longitude": "126.9280593",
		"address": "서울특별시 관악구 봉천동 971-4번지"
	},
	{
		"name": "한성동물병원",
		"gu": "관악구",
		"dong": "신림동",
		"Latitude": "37.4782212",
		"Longitude": "126.9318251",
		"address": "서울특별시 관악구 신림동 409-165번지"
	},
	{
		"name": "형제동물병원",
		"gu": "관악구",
		"dong": "봉천동",
		"Latitude": "37.482348000000002",
		"Longitude": "126.9441563",
		"address": "서울특별시 관악구 봉천동 923-23번지"
	},
	{
		"name": "독산동물병원",
		"gu": "관악구",
		"dong": "신림동",
		"Latitude": "37.462617600000002",
		"Longitude": "126.9383251",
		"address": "서울특별시 관악구 신림동 1668-15번지"
	},
	{
		"name": "정우동물병원",
		"gu": "관악구",
		"dong": "신림동",
		"Latitude": "37.485592599999997",
		"Longitude": "126.92803739999999",
		"address": "서울특별시 관악구 신림동 116-21번지"
	},
	{
		"name": "서울동물병원",
		"gu": "관악구",
		"dong": "신림동",
		"Latitude": "37.462617600000002",
		"Longitude": "126.9383251",
		"address": "서울특별시 관악구 신림동 408-143번지"
	},
	{
		"name": "양지동물병원",
		"gu": "관악구",
		"dong": "신림동",
		"Latitude": "37.4847945",
		"Longitude": "126.932142",
		"address": "서울특별시 관악구 신림동 1422-6번지"
	},
	{
		"name": "24시 스마트동물병원(신사본원)",
		"gu": "강남구",
		"dong": "신사동",
		"Latitude": "37.520660200000002",
		"Longitude": "127.02997809999999",
		"address": "서울특별시 강남구 신사동 587-13번지 1층 지하1층"
	},
	{
		"name": "이삭동물병원",
		"gu": "서초구",
		"dong": "방배동",
		"Latitude": "37.480385099999999",
		"Longitude": "126.9843977",
		"address": "서울특별시 서초구 방배동 464-11번지"
	},
	{
		"name": "신촌동물병원",
		"gu": "마포구",
		"dong": "노고산동",
		"Latitude": "37.555109000000002",
		"Longitude": "126.937844",
		"address": "서울특별시 마포구 노고산동 31-2번지"
	},
	{
		"name": "강서달빛동물병원",
		"gu": "강서구",
		"dong": "내발산동",
		"Latitude": "37.553687400000001",
		"Longitude": "126.8363532",
		"address": "서울특별시 강서구 내발산동 678-4번지"
	},
	{
		"name": "사랑의 동물병원",
		"gu": "영등포구",
		"dong": "양평동",
		"Latitude": "37.540099699999999",
		"Longitude": "126.8921551",
		"address": "서울특별시 영등포구 양평동5가 76번지 양평동한신아파트"
	},
	{
		"name": "웰니스 동물병원",
		"gu": "노원구",
		"dong": "월계동",
		"Latitude": "37.6265012",
		"Longitude": "127.0618485",
		"address": "서울특별시 노원구 월계동 333-1번지 월계이마트"
	},
	{
		"name": "신사24시SKY동물병원",
		"gu": "강남구",
		"dong": "신사동",
		"Latitude": "37.5188931",
		"Longitude": "127.025364",
		"address": "서울특별시 강남구 신사동 561-16번지 국제빌딩 1층"
	},
	{
		"name": "이수의과의원",
		"gu": "용산구",
		"dong": "후암동",
		"Latitude": "37.547188800000001",
		"Longitude": "126.9778598",
		"address": "서울특별시 용산구 후암동 216번지"
	},
	{
		"name": "남산동물병원",
		"gu": "용산구",
		"dong": "후암동",
		"Latitude": "37.550387700000002",
		"Longitude": "126.97704880000001",
		"address": "서울특별시 용산구 후암동 63-1번지 지상1층"
	},
	{
		"name": "효창동물병원",
		"gu": "용산구",
		"dong": "효창동",
		"Latitude": "37.5392832",
		"Longitude": "126.9618569",
		"address": "서울특별시 용산구 효창동 70-11번지"
	},
	{
		"name": "21세기동물병원",
		"gu": "용산구",
		"dong": "보광동",
		"Latitude": "37.528248699999999",
		"Longitude": "126.9991845",
		"address": "서울특별시 용산구 보광동 259-1번지"
	},
	{
		"name": "한남동물병원",
		"gu": "용산구",
		"dong": "한남동",
		"Latitude": "37.532376399999997",
		"Longitude": "127.00526739999999",
		"address": "서울특별시 용산구 한남동 642-4번지"
	},
	{
		"name": "열린동물종합병원",
		"gu": "용산구",
		"dong": "원효로",
		"Latitude": "37.535578000000001",
		"Longitude": "126.9617453",
		"address": "서울특별시 용산구 원효로2가 84-10번지"
	},
	{
		"name": "원효종합동물병원",
		"gu": "용산구",
		"dong": "원효로",
		"Latitude": "37.536405700000003",
		"Longitude": "126.96314030000001",
		"address": "서울특별시 용산구 원효로2가 30-4번지"
	},
	{
		"name": "한사랑동물병원",
		"gu": "용산구",
		"dong": "용산동",
		"Latitude": "37.5416691",
		"Longitude": "126.9873793",
		"address": "서울특별시 용산구 용산동2가 45-7번지"
	},
	{
		"name": "펫토이동물병원",
		"gu": "용산구",
		"dong": "한남동",
		"Latitude": "37.533484999999999",
		"Longitude": "127.0016784",
		"address": "서울특별시 용산구 한남동 653-26번지"
	},
	{
		"name": "청화종합동물병원",
		"gu": "용산구",
		"dong": "이태원동",
		"Latitude": "37.5413657",
		"Longitude": "126.9954221",
		"address": "서울특별시 용산구 이태원동 21-1번지 태광빌딩 1층"
	},
	{
		"name": "금강동물병원",
		"gu": "용산구",
		"dong": "이촌동",
		"Latitude": "37.518526799999997",
		"Longitude": "126.9806796",
		"address": "서울특별시 용산구 이촌동 301-160번지 현대아파트 21동 112호"
	},
	{
		"name": "라온동물병원",
		"gu": "용산구",
		"dong": "이태원동",
		"Latitude": "37.539611600000001",
		"Longitude": "126.9895367",
		"address": "서울특별시 용산구 이태원동 225-93번지"
	},
	{
		"name": "아프리카동물병원",
		"gu": "용산구",
		"dong": "후암동",
		"Latitude": "37.548667100000003",
		"Longitude": "126.9779279",
		"address": "서울특별시 용산구 후암동 244-11번지 지상1층"
	},
	{
		"name": "엉클장동물병원",
		"gu": "용산구",
		"dong": "원효로",
		"Latitude": "37.538067699999999",
		"Longitude": "126.9676185",
		"address": "서울특별시 용산구 원효로1가 133-3번지 외1필지 리첸시아A동 106호(지상1층)"
	},
	{
		"name": "펫동물병원",
		"gu": "용산구",
		"dong": "효창동",
		"Latitude": "37.539557299999998",
		"Longitude": "126.9610667",
		"address": "서울특별시 용산구 효창동 79-1번지 (지상1층)"
	},
	{
		"name": "(주)이상윤동물병원",
		"gu": "용산구",
		"dong": "이촌동",
		"Latitude": "37.518651699999999",
		"Longitude": "126.9738602",
		"address": "서울특별시 용산구 이촌동 300-23번지 한강맨션상가 105호"
	},
	{
		"name": "차오름동물병원",
		"gu": "용산구",
		"dong": "산천동",
		"Latitude": "37.5342324",
		"Longitude": "126.95109429999999",
		"address": "서울특별시 용산구 산천동 93-1번지"
	},
	{
		"name": "달래동물병원",
		"gu": "용산구",
		"dong": "한남동",
		"Latitude": "37.5346847",
		"Longitude": "127.007391",
		"address": "서울특별시 용산구 한남동 66-4번지"
	},
	{
		"name": "민트동물병원",
		"gu": "용산구",
		"dong": "산천동",
		"Latitude": "37.533982700000003",
		"Longitude": "126.9503898",
		"address": "서울특별시 용산구 산천동 202번지 삼성테마트 119호"
	},
	{
		"name": "보광동물병원",
		"gu": "용산구",
		"dong": "보광동",
		"Latitude": "37.526489699999999",
		"Longitude": "127.00076129999999",
		"address": "서울특별시 용산구 보광동 80-11번지"
	},
	{
		"name": "이태원동물병원",
		"gu": "용산구",
		"dong": "이태원동",
		"Latitude": "37.536365799999999",
		"Longitude": "126.9871919",
		"address": "서울특별시 용산구 이태원동 531번지"
	},
	{
		"name": "동물병원 메이",
		"gu": "용산구",
		"dong": "한남동",
		"Latitude": "37.533708699999998",
		"Longitude": "127.0027661",
		"address": "서울특별시 용산구 한남동 657-121번지 2층"
	},
	{
		"name": "펫세상 동물병원",
		"gu": "용산구",
		"dong": "한강로",
		"Latitude": "37.528853900000001",
		"Longitude": "126.9640447",
		"address": "서울특별시 용산구 한강로3가 40-999번지"
	},
	{
		"name": "퍼스동물병원",
		"gu": "용산구",
		"dong": "용산동",
		"Latitude": "37.543073",
		"Longitude": "126.98780499999999",
		"address": "서울특별시 용산구 용산동2가 45-1번지 106호"
	},
	{
		"name": "좋아서하는 동물병원",
		"gu": "용산구",
		"dong": "문배동",
		"Latitude": "37.538038100000001",
		"Longitude": "126.96758250000001",
		"address": "서울특별시 용산구 문배동 40-31번지 리첸시아 B동 113호"
	},
	{
		"name": "24시센트럴동물메디컬센터",
		"gu": "성동구",
		"dong": "행당동",
		"Latitude": "37.558636300000003",
		"Longitude": "127.0336885",
		"address": "서울특별시 성동구 행당동 318-36번지"
	},
	{
		"name": "이윤세동물병원",
		"gu": "성동구",
		"dong": "행당동",
		"Latitude": "37.555912599999999",
		"Longitude": "127.02909579999999",
		"address": "서울특별시 성동구 행당동 346번지 한진노변상가 109호"
	},
	{
		"name": "한양동물메디컬센터",
		"gu": "성동구",
		"dong": "행당동",
		"Latitude": "37.559616599999998",
		"Longitude": "127.03698989999999",
		"address": "서울특별시 성동구 행당동 226-3번지"
	},
	{
		"name": "서울숲동물병원",
		"gu": "성동구",
		"dong": "성수동",
		"Latitude": "37.5390564",
		"Longitude": "127.0532295",
		"address": "서울특별시 성동구 성수동2가 333-3번지 1층"
	},
	{
		"name": "옥수.수 동물병원",
		"gu": "성동구",
		"dong": "옥수동",
		"Latitude": "37.5421774",
		"Longitude": "127.01810519999999",
		"address": "서울특별시 성동구 옥수동 560번지 어울림상가 213호"
	},
	{
		"name": "도담동물병원(출장진료전문 동물병원)",
		"gu": "성동구",
		"dong": "행당동",
		"Latitude": "37.554371799999998",
		"Longitude": "127.0328167",
		"address": "서울특별시 성동구 행당동 344번지 111호"
	},
	{
		"name": "라임동물병원",
		"gu": "성동구",
		"dong": "홍익동",
		"Latitude": "37.565468199999998",
		"Longitude": "127.0303086",
		"address": "서울특별시 성동구 홍익동 398-2번지"
	},
	{
		"name": "성동동물종합병원",
		"gu": "성동구",
		"dong": "성수동",
		"Latitude": "37.545768099999997",
		"Longitude": "127.0528674",
		"address": "서울특별시 성동구 성수동2가 300-69번지"
	},
	{
		"name": "바른동물병원",
		"gu": "성동구",
		"dong": "금호동",
		"Latitude": "37.545923799999997",
		"Longitude": "127.01951699999999",
		"address": "서울특별시 성동구 금호동4가 800번지 금호동대우아파트 상가동 206호"
	},
	{
		"name": "기린동물병원",
		"gu": "성동구",
		"dong": "마장동",
		"Latitude": "37.565622900000001",
		"Longitude": "127.04274890000001",
		"address": "서울특별시 성동구 마장동 791-9번지"
	},
	{
		"name": "24시왕십리조은동물병원",
		"gu": "성동구",
		"dong": "하왕십리동",
		"Latitude": "37.563301500000001",
		"Longitude": "127.03122519999999",
		"address": "서울특별시 성동구 하왕십리동 959-2번지"
	},
	{
		"name": "24시LC동물의료센터",
		"gu": "성동구",
		"dong": "용답동",
		"Latitude": "37.5664017",
		"Longitude": "127.0527262",
		"address": "서울특별시 성동구 용답동 74-2번지"
	},
	{
		"name": "텐즈힐링동물병원",
		"gu": "성동구",
		"dong": "상왕십리동",
		"Latitude": "37.570504999999997",
		"Longitude": "127.023535",
		"address": "서울특별시 성동구 상왕십리동 811번지 텐즈힐몰 221동 134호"
	},
	{
		"name": "SL동물병원",
		"gu": "성동구",
		"dong": "도선동",
		"Latitude": "37.563264699999998",
		"Longitude": "127.032335",
		"address": "서울특별시 성동구 도선동 285-2번지 1층"
	},
	{
		"name": "함께하는동물병원",
		"gu": "성동구",
		"dong": "옥수동",
		"Latitude": "37.542982599999903",
		"Longitude": "127.01311219999999",
		"address": "서울특별시 성동구 옥수동 263-1번지"
	},
	{
		"name": "평화와생명동물병원",
		"gu": "성동구",
		"dong": "행당동",
		"Latitude": "37.555557299999997",
		"Longitude": "127.0289482",
		"address": "서울특별시 성동구 행당동 346번지 한진노변상가 110호"
	},
	{
		"name": "오렌지동물병원",
		"gu": "성동구",
		"dong": "행당동",
		"Latitude": "37.556000999999902",
		"Longitude": "127.0339353",
		"address": "서울특별시 성동구 행당동 322-100번지"
	},
	{
		"name": "성수동물병원",
		"gu": "성동구",
		"dong": "성수동",
		"Latitude": "37.546419899999997",
		"Longitude": "127.04486060000001",
		"address": "서울특별시 성동구 성수동1가 656-565번지"
	},
	{
		"name": "한빛동물병원",
		"gu": "성동구",
		"dong": "금호동",
		"Latitude": "37.553958100000003",
		"Longitude": "127.0193664",
		"address": "서울특별시 성동구 금호동2가 433번지"
	},
	{
		"name": "아지동물병원",
		"gu": "성동구",
		"dong": "금호동",
		"Latitude": "37.547992499999999",
		"Longitude": "127.02102549999999",
		"address": "서울특별시 성동구 금호동4가 1108번지 지상1층"
	},
	{
		"name": "선릉동물병원",
		"gu": "강남구",
		"dong": "삼성동",
		"Latitude": "37.506823699999998",
		"Longitude": "127.0476874",
		"address": "서울특별시 강남구 삼성동 140-1번지"
	},
	{
		"name": "쥬라기동물병원",
		"gu": "중랑구",
		"dong": "신내동",
		"Latitude": "37.616619",
		"Longitude": "127.092472",
		"address": "서울특별시 중랑구 신내동 646번지 금강리빙스텔 119호"
	},
	{
		"name": "주연동물병원",
		"gu": "중랑구",
		"dong": "면목동",
		"Latitude": "37.577257799999998",
		"Longitude": "127.08568959999999",
		"address": "서울특별시 중랑구 면목동 353-25번지"
	},
	{
		"name": "진서동물병원",
		"gu": "중랑구",
		"dong": "신내동",
		"Latitude": "37.6046561",
		"Longitude": "127.0959119",
		"address": "서울특별시 중랑구 신내동 571-8번지"
	},
	{
		"name": "세진동물병원",
		"gu": "중랑구",
		"dong": "망우동",
		"Latitude": "37.598663999999999",
		"Longitude": "127.09623360000001",
		"address": "서울특별시 중랑구 망우동 490-7번지"
	},
	{
		"name": "숲속동물병원",
		"gu": "중랑구",
		"dong": "면목동",
		"Latitude": "37.589212500000002",
		"Longitude": "127.09054709999999",
		"address": "서울특별시 중랑구 면목동 103-4번지 1층"
	},
	{
		"name": "로얄동물메디컬센터",
		"gu": "중랑구",
		"dong": "중화동",
		"Latitude": "37.595292399999998",
		"Longitude": "127.0795806",
		"address": "서울특별시 중랑구 중화동 207번지"
	},
	{
		"name": "진영동물병원",
		"gu": "중랑구",
		"dong": "면목동",
		"Latitude": "37.584783399999999",
		"Longitude": "127.0818635",
		"address": "서울특별시 중랑구 면목동 153-33번지"
	},
	{
		"name": "면목동물병원",
		"gu": "중랑구",
		"dong": "면목동",
		"Latitude": "37.5810435",
		"Longitude": "127.0861981",
		"address": "서울특별시 중랑구 면목동 605-38번지"
	},
	{
		"name": "하니동물병원",
		"gu": "중랑구",
		"dong": "신내동",
		"Latitude": "37.617141799999999",
		"Longitude": "127.0910404",
		"address": "서울특별시 중랑구 신내동 648번지 디아뜨갤러리 142호"
	},
	{
		"name": "한국동물메디컬센터(KAMC)",
		"gu": "중랑구",
		"dong": "면목동",
		"Latitude": "37.588147499999998",
		"Longitude": "127.0858848",
		"address": "서울특별시 중랑구 면목동 119-10번지 1"
	},
	{
		"name": "왈츠동물병원",
		"gu": "중랑구",
		"dong": "신내동",
		"Latitude": "37.603103500000003",
		"Longitude": "127.09553769999999",
		"address": "서울특별시 중랑구 신내동 537-3번지 103호"
	},
	{
		"name": "닥터 아이펫 동물병원",
		"gu": "중랑구",
		"dong": "상봉동",
		"Latitude": "37.597884200000003",
		"Longitude": "127.0903454",
		"address": "서울특별시 중랑구 상봉동 500번지 홈플러스 B2"
	},
	{
		"name": "도그플러스 동물병원",
		"gu": "중랑구",
		"dong": "신내동",
		"Latitude": "37.615780899999997",
		"Longitude": "127.09370680000001",
		"address": "서울특별시 중랑구 신내동 645번지 홈플러스 2층"
	},
	{
		"name": "행복이 있는 동물병원",
		"gu": "중랑구",
		"dong": "신내동",
		"Latitude": "37.607789500000003",
		"Longitude": "127.09832609999999",
		"address": "서울특별시 중랑구 신내동 405-5번지"
	},
	{
		"name": "태능동물병원",
		"gu": "중랑구",
		"dong": "묵동",
		"Latitude": "37.612554199999998",
		"Longitude": "127.0775737",
		"address": "서울특별시 중랑구 묵동 175-2번지 3층"
	},
	{
		"name": "혜원동물병원",
		"gu": "중랑구",
		"dong": "면목동",
		"Latitude": "37.582230199999998",
		"Longitude": "127.0881876",
		"address": "서울특별시 중랑구 면목동 497-7번지"
	},
	{
		"name": "중랑차동물병원",
		"gu": "중랑구",
		"dong": "상봉동",
		"Latitude": "37.592404399999999",
		"Longitude": "127.07265099999999",
		"address": "서울특별시 중랑구 상봉동 137-16번지"
	},
	{
		"name": "보람동물병원",
		"gu": "중랑구",
		"dong": "면목동",
		"Latitude": "37.576919500000002",
		"Longitude": "127.08575260000001",
		"address": "서울특별시 중랑구 면목동 353-4번지"
	},
	{
		"name": "엔젤동물병원",
		"gu": "중랑구",
		"dong": "면목동",
		"Latitude": "37.5887575",
		"Longitude": "127.0883288",
		"address": "서울특별시 중랑구 면목동 102-51번지"
	},
	{
		"name": "동부제일동물병원",
		"gu": "중랑구",
		"dong": "상봉동",
		"Latitude": "37.595048200000001",
		"Longitude": "127.08212349999999",
		"address": "서울특별시 중랑구 상봉동 118-8번지"
	},
	{
		"name": "홍상희동물병원",
		"gu": "중랑구",
		"dong": "묵동",
		"Latitude": "37.610629000000003",
		"Longitude": "127.0773891",
		"address": "서울특별시 중랑구 묵동 239-76번지"
	},
	{
		"name": "하스펫탈동물병원",
		"gu": "중랑구",
		"dong": "면목동",
		"Latitude": "37.590953800000001",
		"Longitude": "127.0866431",
		"address": "서울특별시 중랑구 면목동 129-7번지"
	},
	{
		"name": "신내동물병원",
		"gu": "중랑구",
		"dong": "중화동",
		"Latitude": "37.602663499999998",
		"Longitude": "127.08568459999999",
		"address": "서울특별시 중랑구 중화동 11-36번지 삼일시티빌 1층"
	},
	{
		"name": "진정훈동물병원",
		"gu": "중랑구",
		"dong": "중화동",
		"Latitude": "37.599927600000001",
		"Longitude": "127.0794872",
		"address": "서울특별시 중랑구 중화동 303-16번지"
	},
	{
		"name": "성지동물병원",
		"gu": "중랑구",
		"dong": "면목동",
		"Latitude": "37.579872700000003",
		"Longitude": "127.0877952",
		"address": "서울특별시 중랑구 면목동 634-5번지"
	},
	{
		"name": "금란동물병원",
		"gu": "중랑구",
		"dong": "망우동",
		"Latitude": "37.598409799999999",
		"Longitude": "127.1005818",
		"address": "서울특별시 중랑구 망우동 364-27번지"
	},
	{
		"name": "24시 동물응급의료센터",
		"gu": "중랑구",
		"dong": "중화동",
		"Latitude": "37.595292399999998",
		"Longitude": "127.0795806",
		"address": "서울특별시 중랑구 중화동 207번지 지하1층"
	},
	{
		"name": "서울우유협동조합유우진료소",
		"gu": "중랑구",
		"dong": "상봉동",
		"Latitude": "37.591791000000001",
		"Longitude": "127.0725556",
		"address": "서울특별시 중랑구 상봉동 137-7번지"
	},
	{
		"name": "방학동물외과센터",
		"gu": "도봉구",
		"dong": "방학동",
		"Latitude": "37.669057000000002",
		"Longitude": "127.0431913",
		"address": "서울특별시 도봉구 방학동 653-17번지 3층"
	},
	{
		"name": "키다리동물병원",
		"gu": "송파구",
		"dong": "문정동",
		"Latitude": "37.480984200000002",
		"Longitude": "127.1211237",
		"address": "서울특별시 송파구 문정동 620-110번지 송파푸르지오시티"
	},
	{
		"name": "오즈동물병원",
		"gu": "서대문구",
		"dong": "남가좌동",
		"Latitude": "37.5733058",
		"Longitude": "126.91893399999999",
		"address": "서울특별시 서대문구 남가좌동 124-1번지"
	},
	{
		"name": "구름동물병원",
		"gu": "양천구",
		"dong": "신정동",
		"Latitude": "37.524977",
		"Longitude": "126.85616400000001",
		"address": "서울특별시 양천구 신정동 1320-2번지 신정프라자 203호"
	},
	{
		"name": "에이원동물병원",
		"gu": "서초구",
		"dong": "서초동",
		"Latitude": "37.487931400000001",
		"Longitude": "127.0091261",
		"address": "서울특별시 서초구 서초동 1538-9번지 유민빌딩 1층"
	},
	{
		"name": "이로동물병원",
		"gu": "관악구",
		"dong": "신림동",
		"Latitude": "37.488355599999998",
		"Longitude": "126.9265935",
		"address": "서울특별시 관악구 신림동 10-631번지"
	},
	{
		"name": "스마트동물병원",
		"gu": "노원구",
		"dong": "상계동",
		"Latitude": "37.658396499999903",
		"Longitude": "127.0657368",
		"address": "서울특별시 노원구 상계동 397-5번지"
	},
	{
		"name": "허브동물병원",
		"gu": "구로구",
		"dong": "구로동",
		"Latitude": "37.495833599999997",
		"Longitude": "126.87264999999999",
		"address": "서울특별시 구로구 구로동 650-4번지"
	},
	{
		"name": "독산온동물병원",
		"gu": "금천구",
		"dong": "독산동",
		"Latitude": "37.466978300000001",
		"Longitude": "126.9015016",
		"address": "서울특별시 금천구 독산동 1023-14번지"
	},
	{
		"name": "서초M동물의료센터",
		"gu": "서초구",
		"dong": "서초동",
		"Latitude": "37.4892313",
		"Longitude": "127.0183768",
		"address": "서울특별시 서초구 서초동 1628-11번지 유미원 1층"
	},
	{
		"name": "압구정동물병원",
		"gu": "강남구",
		"dong": "신사동",
		"Latitude": "37.5285242",
		"Longitude": "127.0321345",
		"address": "서울특별시 강남구 신사동 616-2번지 105호"
	},
	{
		"name": "참좋은동물병원",
		"gu": "은평구",
		"dong": "응암동",
		"Latitude": "37.588194899999998",
		"Longitude": "126.9224382",
		"address": "서울특별시 은평구 응암동 244-212번지"
	},
	{
		"name": "스테이동물병원",
		"gu": "성동구",
		"dong": "옥수동",
		"Latitude": "37.545936400000002",
		"Longitude": "127.01094089999999",
		"address": "서울특별시 성동구 옥수동 526번지 옥수파크힐스상가 B102호"
	},
	{
		"name": "닥터그레이동물병원",
		"gu": "강남구",
		"dong": "도곡동",
		"Latitude": "37.488533500000003",
		"Longitude": "127.0520866",
		"address": "서울특별시 강남구 도곡동 467-7번지"
	},
	{
		"name": "해봄동물병원",
		"gu": "도봉구",
		"dong": "도봉동",
		"Latitude": "37.6905809",
		"Longitude": "127.0472257",
		"address": "서울특별시 도봉구 도봉동 62-43번지"
	},
	{
		"name": "안단테 동물병원",
		"gu": "강동구",
		"dong": "천호동",
		"Latitude": "37.548536599999998",
		"Longitude": "127.143303",
		"address": "서울특별시 강동구 천호동 30-5번지"
	},
	{
		"name": "올스타동물의료센터",
		"gu": "강서구",
		"dong": "화곡동",
		"Latitude": "37.536921900000003",
		"Longitude": "126.8379048",
		"address": "서울특별시 강서구 화곡동 371-32번지"
	},
	{
		"name": "나은동물병원",
		"gu": "강남구",
		"dong": "개포동",
		"Latitude": "37.479102599999997",
		"Longitude": "127.04911679999999",
		"address": "서울특별시 강남구 개포동 1259-4번지 101호"
	},
	{
		"name": "서울동물의료센터",
		"gu": "강남구",
		"dong": "대치동",
		"Latitude": "37.501255100000002",
		"Longitude": "127.0536166",
		"address": "서울특별시 강남구 대치동 909-5번지 1"
	},
	{
		"name": "아크리스동물의료센터",
		"gu": "강남구",
		"dong": "삼성동",
		"Latitude": "37.513677299999998",
		"Longitude": "127.0618982",
		"address": "서울특별시 강남구 삼성동 160-21번지 3층"
	},
	{
		"name": "현대종합동물병원",
		"gu": "동대문구",
		"dong": "장안동",
		"Latitude": "37.572457499999999",
		"Longitude": "127.0730343",
		"address": "서울특별시 동대문구 장안동 330-2번지"
	},
	{
		"name": "광진24시필동물병원",
		"gu": "광진구",
		"dong": "구의동",
		"Latitude": "37.5387348",
		"Longitude": "127.0961255",
		"address": "서울특별시 광진구 구의동 611번지 구의현대2단지아파트"
	},
	{
		"name": "하트온동물병원",
		"gu": "강서구",
		"dong": "화곡동",
		"Latitude": "37.5319389",
		"Longitude": "126.86173960000001",
		"address": "서울특별시 강서구 화곡동 796-1번지 피앤와이빌딩 3호"
	},
	{
		"name": "경희궁 바른 동물병원",
		"gu": "종로구",
		"dong": "홍파동",
		"Latitude": "37.571324599999997",
		"Longitude": "126.96356539999999",
		"address": "서울특별시 종로구 홍파동 42-13번지 경희궁자이 2단지 상가동 2229호"
	},
	{
		"name": "송파원동물병원",
		"gu": "송파구",
		"dong": "송파동",
		"Latitude": "37.5092061",
		"Longitude": "127.11188180000001",
		"address": "서울특별시 송파구 송파동 135-2번지"
	},
	{
		"name": "동서울동물병원",
		"gu": "광진구",
		"dong": "광장동",
		"Latitude": "37.5399569",
		"Longitude": "127.10012500000001",
		"address": "서울특별시 광진구 광장동 517-5번지 삼익아파트"
	},
	{
		"name": "킴스동물종합병원",
		"gu": "광진구",
		"dong": "중곡동",
		"Latitude": "37.564024600000003",
		"Longitude": "127.0800526",
		"address": "서울특별시 광진구 중곡동 231-7번지"
	},
	{
		"name": "시민동물병원",
		"gu": "광진구",
		"dong": "자양동",
		"Latitude": "37.536105200000002",
		"Longitude": "127.0840481",
		"address": "서울특별시 광진구 자양동 680번지"
	},
	{
		"name": "피카소동물병원",
		"gu": "광진구",
		"dong": "화양동",
		"Latitude": "37.547258200000002",
		"Longitude": "127.07328080000001",
		"address": "서울특별시 광진구 화양동 216번지"
	},
	{
		"name": "용마동물병원",
		"gu": "광진구",
		"dong": "중곡동",
		"Latitude": "37.559529599999998",
		"Longitude": "127.0878678",
		"address": "서울특별시 광진구 중곡동 58-18번지"
	},
	{
		"name": "중곡동물병원",
		"gu": "광진구",
		"dong": "중곡동",
		"Latitude": "37.562706400000003",
		"Longitude": "127.0815561",
		"address": "서울특별시 광진구 중곡동 241-34번지"
	},
	{
		"name": "방주종합동물병원",
		"gu": "광진구",
		"dong": "중곡동",
		"Latitude": "37.559293599999997",
		"Longitude": "127.0809155",
		"address": "서울특별시 광진구 중곡동 161-27번지"
	},
	{
		"name": "광진동물의료센터",
		"gu": "광진구",
		"dong": "구의동",
		"Latitude": "37.545192399999998",
		"Longitude": "127.0859286",
		"address": "서울특별시 광진구 구의동 68-37번지"
	},
	{
		"name": "건국대학교 부속 동물병원",
		"gu": "광진구",
		"dong": "화양동",
		"Latitude": "37.541971699999998",
		"Longitude": "127.0767285",
		"address": "서울특별시 광진구 화양동 1번지"
	},
	{
		"name": "아차산동물병원",
		"gu": "광진구",
		"dong": "구의동",
		"Latitude": "37.551769999999998",
		"Longitude": "127.0902383",
		"address": "서울특별시 광진구 구의동 53-9번지"
	},
	{
		"name": "쥬라기동물병원",
		"gu": "광진구",
		"dong": "광장동",
		"Latitude": "37.542036799999998",
		"Longitude": "127.0952643",
		"address": "서울특별시 광진구 광장동 530-39번지"
	},
	{
		"name": "이다종합동물병원",
		"gu": "광진구",
		"dong": "자양동",
		"Latitude": "37.535760799999998",
		"Longitude": "127.06607289999999",
		"address": "서울특별시 광진구 자양동 553-280번지"
	},
	{
		"name": "수동물병원",
		"gu": "광진구",
		"dong": "군자동",
		"Latitude": "37.5484656",
		"Longitude": "127.067905",
		"address": "서울특별시 광진구 군자동 355-10번지"
	},
	{
		"name": "프라임동물병원",
		"gu": "광진구",
		"dong": "구의동",
		"Latitude": "37.538845799999997",
		"Longitude": "127.0908482",
		"address": "서울특별시 광진구 구의동 659번지 세림리오빌아파트 제비1-1호"
	},
	{
		"name": "퓨리나동물병원",
		"gu": "도봉구",
		"dong": "쌍문동",
		"Latitude": "37.649008199999997",
		"Longitude": "127.0256856",
		"address": "서울특별시 도봉구 쌍문동 356번지 12통7반 삼익빌라 101동 403호"
	},
	{
		"name": "신창동물병원",
		"gu": "도봉구",
		"dong": "창동",
		"Latitude": "37.641415500000001",
		"Longitude": "127.03396189999999",
		"address": "서울특별시 도봉구 창동 635-42번지 20통1반 건영캐스빌아파트 101동 1201호"
	},
	{
		"name": "화신종합동물병원",
		"gu": "도봉구",
		"dong": "방학동",
		"Latitude": "37.6637542",
		"Longitude": "127.0346498",
		"address": "서울특별시 도봉구 방학동 664-11번지 15통5반 101호"
	},
	{
		"name": "한빛동물병원",
		"gu": "도봉구",
		"dong": "창동",
		"Latitude": "37.640142300000001",
		"Longitude": "127.0397801",
		"address": "서울특별시 도봉구 창동 568-5번지"
	},
	{
		"name": "방학동물병원",
		"gu": "도봉구",
		"dong": "방학동",
		"Latitude": "37.669057000000002",
		"Longitude": "127.0431913",
		"address": "서울특별시 도봉구 방학동 653-17번지 2층"
	},
	{
		"name": "도담동물병원",
		"gu": "도봉구",
		"dong": "도봉동",
		"Latitude": "37.682626200000001",
		"Longitude": "127.0455067",
		"address": "서울특별시 도봉구 도봉동 562-26번지"
	},
	{
		"name": "가나동물병원",
		"gu": "도봉구",
		"dong": "방학동",
		"Latitude": "37.662666600000001",
		"Longitude": "127.03408810000001",
		"address": "서울특별시 도봉구 방학동 665-11번지 2통6반 삼익세라믹아파트 105동 503호"
	},
	{
		"name": "동물병원 WITH",
		"gu": "도봉구",
		"dong": "창동",
		"Latitude": "37.655469500000002",
		"Longitude": "127.0391833",
		"address": "서울특별시 도봉구 창동 715-12번지 태진빌딩 1층"
	},
	{
		"name": "현대종합동물병원",
		"gu": "도봉구",
		"dong": "방학동",
		"Latitude": "37.6641938",
		"Longitude": "127.04226420000001",
		"address": "서울특별시 도봉구 방학동 680-1번지"
	},
	{
		"name": "삼성동물종합병원",
		"gu": "도봉구",
		"dong": "쌍문동",
		"Latitude": "37.650150400000001",
		"Longitude": "127.0352962",
		"address": "서울특별시 도봉구 쌍문동 88-115번지 1층"
	},
	{
		"name": "쿨펫동물병원",
		"gu": "도봉구",
		"dong": "방학동",
		"Latitude": "37.667566399999998",
		"Longitude": "127.0454944",
		"address": "서울특별시 도봉구 방학동 717-6번지"
	},
	{
		"name": "유현동물병원",
		"gu": "도봉구",
		"dong": "방학동",
		"Latitude": "37.661274200000001",
		"Longitude": "127.03171159999999",
		"address": "서울특별시 도봉구 방학동 731번지 한화아파트 상가 105호"
	},
	{
		"name": "행복한동물병원",
		"gu": "도봉구",
		"dong": "창동",
		"Latitude": "37.6593503",
		"Longitude": "127.0417621",
		"address": "서울특별시 도봉구 창동 749-16번지"
	},
	{
		"name": "사랑해요동물병원",
		"gu": "도봉구",
		"dong": "쌍문동",
		"Latitude": "37.656145700000003",
		"Longitude": "127.0277048",
		"address": "서울특별시 도봉구 쌍문동 262-10번지 104호"
	},
	{
		"name": "365동물병원",
		"gu": "도봉구",
		"dong": "방학동",
		"Latitude": "37.662934800000002",
		"Longitude": "127.0463381",
		"address": "서울특별시 도봉구 방학동 713-35번지"
	},
	{
		"name": "하비동물병원",
		"gu": "도봉구",
		"dong": "창동",
		"Latitude": "37.651993099999999",
		"Longitude": "127.0465063",
		"address": "서울특별시 도봉구 창동 75-4번지"
	},
	{
		"name": "별난동물병원",
		"gu": "도봉구",
		"dong": "쌍문동",
		"Latitude": "37.658567900000001",
		"Longitude": "127.0402818",
		"address": "서울특별시 도봉구 쌍문동 716-31번지"
	},
	{
		"name": "삼양동물병원",
		"gu": "강북구",
		"dong": "미아동",
		"Latitude": "37.6202355",
		"Longitude": "127.02054800000001",
		"address": "서울특별시 강북구 미아동 703-56번지"
	},
	{
		"name": "중앙동물병원",
		"gu": "강북구",
		"dong": "미아동",
		"Latitude": "37.6169242",
		"Longitude": "127.0303657",
		"address": "서울특별시 강북구 미아동 98-39번지"
	},
	{
		"name": "동물병원 위드",
		"gu": "강북구",
		"dong": "수유동",
		"Latitude": "37.634764300000001",
		"Longitude": "127.0225859",
		"address": "서울특별시 강북구 수유동 47-69번지"
	},
	{
		"name": "사랑동물병원",
		"gu": "강북구",
		"dong": "수유동",
		"Latitude": "37.628224000000003",
		"Longitude": "127.01357",
		"address": "서울특별시 강북구 수유동 319-12번지 삼흥연립"
	},
	{
		"name": "현대종합동물병원",
		"gu": "강북구",
		"dong": "수유동",
		"Latitude": "37.6437387",
		"Longitude": "127.023036",
		"address": "서울특별시 강북구 수유동 252-199번지"
	},
	{
		"name": "솔샘동물병원",
		"gu": "강북구",
		"dong": "미아동",
		"Latitude": "37.619163499999999",
		"Longitude": "127.0224334",
		"address": "서울특별시 강북구 미아동 860-98번지 2층203호"
	},
	{
		"name": "애니케어 동물병원 수유점",
		"gu": "강북구",
		"dong": "수유동",
		"Latitude": "37.647722999999999",
		"Longitude": "127.0142549",
		"address": "서울특별시 강북구 수유동 279-290번지"
	},
	{
		"name": "대형동물병원",
		"gu": "강북구",
		"dong": "수유동",
		"Latitude": "37.647942499999999",
		"Longitude": "127.01464970000001",
		"address": "서울특별시 강북구 수유동 278-3번지"
	},
	{
		"name": "창문동물병원",
		"gu": "강북구",
		"dong": "미아동",
		"Latitude": "37.611062699999998",
		"Longitude": "127.0337468",
		"address": "서울특별시 강북구 미아동 48-24번지"
	},
	{
		"name": "위즈동물병원",
		"gu": "강북구",
		"dong": "미아동",
		"Latitude": "37.6266854",
		"Longitude": "127.0262534",
		"address": "서울특별시 강북구 미아동 197-9번지"
	},
	{
		"name": "동물을사랑하는사람들",
		"gu": "강북구",
		"dong": "번동",
		"Latitude": "37.640861899999997",
		"Longitude": "127.0326834",
		"address": "서울특별시 강북구 번동 471-1번지"
	},
	{
		"name": "강북동물병원",
		"gu": "강북구",
		"dong": "번동",
		"Latitude": "37.628833800000002",
		"Longitude": "127.03985059999999",
		"address": "서울특별시 강북구 번동 309번지 덕수빌딩 1층"
	},
	{
		"name": "삼성동물병원",
		"gu": "강북구",
		"dong": "미아동",
		"Latitude": "37.6142301",
		"Longitude": "127.0208782",
		"address": "서울특별시 강북구 미아동 813번지 지층 1-2"
	},
	{
		"name": "수 동물병원",
		"gu": "강북구",
		"dong": "미아동",
		"Latitude": "37.619872299999997",
		"Longitude": "127.0169653",
		"address": "서울특별시 강북구 미아동 1341-1번지 유머빌딩 103호"
	},
	{
		"name": "보노보노동물병원",
		"gu": "강북구",
		"dong": "수유동",
		"Latitude": "37.634356099999998",
		"Longitude": "127.0180163",
		"address": "서울특별시 강북구 수유동 119-7번지"
	},
	{
		"name": "호 동물병원",
		"gu": "강북구",
		"dong": "미아동",
		"Latitude": "37.611946099999997",
		"Longitude": "127.0354377",
		"address": "서울특별시 강북구 미아동 1318번지"
	},
	{
		"name": "쿠키동물병원",
		"gu": "강북구",
		"dong": "미아동",
		"Latitude": "37.618650600000002",
		"Longitude": "127.0204765",
		"address": "서울특별시 강북구 미아동 812번지 래미안트리베라 201동 116호"
	},
	{
		"name": "봉식동물병원",
		"gu": "강북구",
		"dong": "미아동",
		"Latitude": "37.6258099",
		"Longitude": "127.0184618",
		"address": "서울특별시 강북구 미아동 777-3번지"
	},
	{
		"name": "스마트 동물병원",
		"gu": "강북구",
		"dong": "미아동",
		"Latitude": "37.620258700000001",
		"Longitude": "127.0153335",
		"address": "서울특별시 강북구 미아동 839-223번지 1층"
	},
	{
		"name": "아프리카동물병원",
		"gu": "영등포구",
		"dong": "대림동",
		"Latitude": "37.489866499999998",
		"Longitude": "126.9067311",
		"address": "서울특별시 영등포구 대림동 979-3번지 1층"
	},
	{
		"name": "시온동물병원",
		"gu": "강서구",
		"dong": "화곡동",
		"Latitude": "37.545195499999998",
		"Longitude": "126.84731360000001",
		"address": "서울특별시 강서구 화곡동 46-236번지"
	},
	{
		"name": "SKY동물병원",
		"gu": "강서구",
		"dong": "방화동",
		"Latitude": "37.563735399999999",
		"Longitude": "126.81029460000001",
		"address": "서울특별시 강서구 방화동 259번지 23통8반 대림아파트 208동 801호"
	},
	{
		"name": "용봉동물병원",
		"gu": "강서구",
		"dong": "화곡동",
		"Latitude": "37.533025599999903",
		"Longitude": "126.8445875",
		"address": "서울특별시 강서구 화곡동 349-23번지 21통2반"
	},
	{
		"name": "황하동물병원",
		"gu": "강서구",
		"dong": "방화동",
		"Latitude": "37.576456299999997",
		"Longitude": "126.813873",
		"address": "서울특별시 강서구 방화동"
	},
	{
		"name": "박동물병원",
		"gu": "강서구",
		"dong": "내발산동",
		"Latitude": "37.551956799999999",
		"Longitude": "126.8366596",
		"address": "서울특별시 강서구 내발산동 702-4번지 106호"
	},
	{
		"name": "고득영동물병원",
		"gu": "강서구",
		"dong": "화곡동",
		"Latitude": "37.5313856",
		"Longitude": "126.8550252",
		"address": "서울특별시 강서구 화곡동 861-8번지 9통2반"
	},
	{
		"name": "우장동물병원",
		"gu": "강서구",
		"dong": "화곡동",
		"Latitude": "37.528798999999999",
		"Longitude": "126.8475456",
		"address": "서울특별시 강서구 화곡동 904번지 8통8반 목동신시가지아파트 405동 805호"
	},
	{
		"name": "발산종합동물병원",
		"gu": "강서구",
		"dong": "화곡동",
		"Latitude": "37.545628299999997",
		"Longitude": "126.8371439",
		"address": "서울특별시 강서구 화곡동 1025-12번지 16통2반 원주빌라 가동 102호"
	},
	{
		"name": "강서동물병원",
		"gu": "강서구",
		"dong": "화곡동",
		"Latitude": "37.5321839",
		"Longitude": "126.8395125",
		"address": "서울특별시 강서구 화곡동 421-23번지"
	},
	{
		"name": "미래동물병원",
		"gu": "강서구",
		"dong": "화곡동",
		"Latitude": "37.5304815",
		"Longitude": "126.8411342",
		"address": "서울특별시 강서구 화곡동 425-1번지 8통6반 청구빌라 301호"
	},
	{
		"name": "염창제일동물병원",
		"gu": "강서구",
		"dong": "염창동",
		"Latitude": "37.553074600000002",
		"Longitude": "126.8697331",
		"address": "서울특별시 강서구 염창동 244-26 번지"
	},
	{
		"name": "서울플러스종합동물병원",
		"gu": "강서구",
		"dong": "화곡동",
		"Latitude": "37.538118399999902",
		"Longitude": "126.8471024",
		"address": "서울특별시 강서구 화곡동 728-8번지 22통2반"
	},
	{
		"name": "해맑은동물병원",
		"gu": "강서구",
		"dong": "가양동",
		"Latitude": "37.562588599999998",
		"Longitude": "126.85298179999999",
		"address": "서울특별시 강서구 가양동 1480-5번지 10통7반 이스타빌1 502호"
	},
	{
		"name": "대한동물병원",
		"gu": "강서구",
		"dong": "화곡동",
		"Latitude": "37.543854600000003",
		"Longitude": "126.8431508",
		"address": "서울특별시 강서구 화곡동 1059-51번지"
	},
	{
		"name": "하나동물병원",
		"gu": "강서구",
		"dong": "방화동",
		"Latitude": "37.574293599999997",
		"Longitude": "126.8112859",
		"address": "서울특별시 강서구 방화동 53-273번지"
	},
	{
		"name": "24시아프리카동물메디컬센터",
		"gu": "강서구",
		"dong": "등촌동",
		"Latitude": "37.555506100000002",
		"Longitude": "126.8485936",
		"address": "서울특별시 강서구 등촌동 24통7반 우장산롯데캐슬 307동 1003호"
	},
	{
		"name": "와우동물병원",
		"gu": "강서구",
		"dong": "방화동",
		"Latitude": "37.567947799999999",
		"Longitude": "126.80843350000001",
		"address": "서울특별시 강서구 방화동 585-1번지 24통8반 대우아파트 204동 306호"
	},
	{
		"name": "호서동물의료센터",
		"gu": "강서구",
		"dong": "등촌동",
		"Latitude": "37.561942500000001",
		"Longitude": "126.8530138",
		"address": "서울특별시 강서구 등촌동 42-23번지"
	},
	{
		"name": "세인트동물병원",
		"gu": "강서구",
		"dong": "화곡동",
		"Latitude": "37.530452500000003",
		"Longitude": "126.84340640000001",
		"address": "서울특별시 강서구 화곡동 345-9번지 12통7반 2층동 202호"
	},
	{
		"name": "굿모닝동물병원",
		"gu": "강서구",
		"dong": "방화동",
		"Latitude": "37.576456299999997",
		"Longitude": "126.813873",
		"address": "서울특별시 강서구 방화동 1265번지 24통4반 숲속마을 402동 502호"
	},
	{
		"name": "다나동물병원",
		"gu": "강서구",
		"dong": "화곡동",
		"Latitude": "37.5451877",
		"Longitude": "126.8487384",
		"address": "서울특별시 강서구 화곡동 313번지 목동신시가지 아파트 902-203"
	},
	{
		"name": "서서울동물병원",
		"gu": "강서구",
		"dong": "염창동",
		"Latitude": "37.563227400000002",
		"Longitude": "126.8526763",
		"address": "서울특별시 강서구 염창동 이스타빌2차 519호"
	},
	{
		"name": "서울축산농협동물병원",
		"gu": "강서구",
		"dong": "등촌동",
		"Latitude": "37.558653",
		"Longitude": "126.8532512",
		"address": "서울특별시 강서구 등촌동 824번지 9통1반"
	},
	{
		"name": "파스텔동물병원",
		"gu": "강서구",
		"dong": "화곡동",
		"Latitude": "37.539711199999999",
		"Longitude": "126.8341286",
		"address": "서울특별시 강서구 화곡동 1070-0001번지 1층"
	},
	{
		"name": "오즈동물병원",
		"gu": "강서구",
		"dong": "내발산동",
		"Latitude": "37.548322800000001",
		"Longitude": "126.83381110000001",
		"address": "서울특별시 강서구 내발산동 722-0015번지"
	},
	{
		"name": "쿨펫 동물병원",
		"gu": "강서구",
		"dong": "가양동",
		"Latitude": "37.563262100000003",
		"Longitude": "126.8293778",
		"address": "서울특별시 강서구 가양동 720번지 31통10반 주공아파트 615동 1105호"
	},
	{
		"name": "가양쿨펫동물병원",
		"gu": "강서구",
		"dong": "가양동",
		"Latitude": "37.572506400000002",
		"Longitude": "126.840035",
		"address": "서울특별시 강서구 가양동 17번지 4통10반 파크리오 119동 403호"
	},
	{
		"name": "스마일동물병원",
		"gu": "강서구",
		"dong": "내발산동",
		"Latitude": "37.554642200000004",
		"Longitude": "126.834636",
		"address": "서울특별시 강서구 내발산동 1139번지 16통3반 초록아파트 107동 702호"
	},
	{
		"name": "24시 안박동물병원",
		"gu": "강서구",
		"dong": "등촌동",
		"Latitude": "37.560064599999997",
		"Longitude": "126.8563419",
		"address": "서울특별시 강서구 등촌동 628-13번지 101-1호"
	},
	{
		"name": "세명 동물병원",
		"gu": "강서구",
		"dong": "화곡동",
		"Latitude": "37.543436100000001",
		"Longitude": "126.84477200000001",
		"address": "서울특별시 강서구 화곡동 134번지 8통3반 공원아파트 507호"
	},
	{
		"name": "화곡동물병원",
		"gu": "강서구",
		"dong": "화곡동",
		"Latitude": "37.549486100000003",
		"Longitude": "126.8527611",
		"address": "서울특별시 강서구 화곡동 13통3반 주공아파트 203동 1901호"
	},
	{
		"name": "한마음동물병원",
		"gu": "강서구",
		"dong": "화곡동",
		"Latitude": "37.531299699999998",
		"Longitude": "126.8596483",
		"address": "서울특별시 강서구 화곡동 27통5반 동양아파트 108동 2406호"
	},
	{
		"name": "강서YD동물의료센터",
		"gu": "강서구",
		"dong": "등촌동",
		"Latitude": "37.556911700000001",
		"Longitude": "126.8522274",
		"address": "서울특별시 강서구 등촌동 658-4번지"
	},
	{
		"name": "젠틀리동물병원",
		"gu": "강서구",
		"dong": "마곡동",
		"Latitude": "37.546560999999997",
		"Longitude": "126.8371611",
		"address": "서울특별시 강서구 마곡동 18통1반 화곡푸르지오 114동 902호"
	},
	{
		"name": "미소동물의료센터",
		"gu": "강서구",
		"dong": "화곡동",
		"Latitude": "37.555464200000003",
		"Longitude": "126.8505962",
		"address": "서울특별시 강서구 화곡동 29통3반 한화 유로메트로 102동 1501호"
	},
	{
		"name": "조아동물병원",
		"gu": "금천구",
		"dong": "독산동",
		"Latitude": "37.4537434",
		"Longitude": "126.89037020000001",
		"address": "서울특별시 금천구 독산동 1102-5번지"
	},
	{
		"name": "마리스동물의료센터",
		"gu": "강동구",
		"dong": "암사동",
		"Latitude": "37.5540272",
		"Longitude": "127.1292084",
		"address": "서울특별시 강동구 암사동 462-3번지"
	},
	{
		"name": "해맑은동물병원",
		"gu": "광진구",
		"dong": "자양동",
		"Latitude": "37.5316288",
		"Longitude": "127.0839354",
		"address": "서울특별시 광진구 자양동 662-13번지"
	},
	{
		"name": "광장동물의료센터",
		"gu": "광진구",
		"dong": "광장동",
		"Latitude": "37.546928399999999",
		"Longitude": "127.10648",
		"address": "서울특별시 광진구 광장동 326-16번지"
	},
	{
		"name": "24시 시유동물메디컬센터",
		"gu": "용산구",
		"dong": "이촌동",
		"Latitude": "37.519965599999999",
		"Longitude": "126.96985890000001",
		"address": "서울특별시 용산구 이촌동 302-88번지"
	},
	{
		"name": "신길 온동물병원",
		"gu": "영등포구",
		"dong": "신길동",
		"Latitude": "37.501553399999999",
		"Longitude": "126.9140986",
		"address": "서울특별시 영등포구 신길동 2039번지 상가동 C119호"
	},
	{
		"name": "로이동물병원",
		"gu": "성북구",
		"dong": "동소문동",
		"Latitude": "37.595323299999997",
		"Longitude": "127.01573809999999",
		"address": "서울특별시 성북구 동소문동6가 237번지"
	},
	{
		"name": "강동24시 SKY 동물의료센터",
		"gu": "강동구",
		"dong": "성내동",
		"Latitude": "37.534298799999902",
		"Longitude": "127.1359586",
		"address": "서울특별시 강동구 성내동 244-2번지 1~4층"
	},
	{
		"name": "서정동물병원",
		"gu": "노원구",
		"dong": "상계동",
		"Latitude": "37.673534799999999",
		"Longitude": "127.0557891",
		"address": "서울특별시 노원구 상계동 1025-32번지"
	},
	{
		"name": "트윈스동물병원",
		"gu": "도봉구",
		"dong": "창동",
		"Latitude": "37.6453311",
		"Longitude": "127.03367919999999",
		"address": "서울특별시 도봉구 창동 650-11번지"
	},
	{
		"name": "더힐동물의료센터",
		"gu": "용산구",
		"dong": "한남동",
		"Latitude": "37.534622599999999",
		"Longitude": "127.0095785",
		"address": "서울특별시 용산구 한남동 29-6번지 아이리스프라자 3층"
	},
	{
		"name": "압구정메이트동물병원",
		"gu": "강남구",
		"dong": "신사동",
		"Latitude": "37.528205900000003",
		"Longitude": "127.0378295",
		"address": "서울특별시 강남구 신사동 660-7번지 1층"
	},
	{
		"name": "돌봄동물병원",
		"gu": "강동구",
		"dong": "암사동",
		"Latitude": "37.555215199999999",
		"Longitude": "127.1403292",
		"address": "서울특별시 강동구 암사동 414-18번지"
	},
	{
		"name": "고려종합동물병원",
		"gu": "강남구",
		"dong": "도곡동",
		"Latitude": "37.4953504",
		"Longitude": "127.05271430000001",
		"address": "서울특별시 강남구 도곡동 527-3번지 도곡렉슬상가 109동"
	},
	{
		"name": "중앙동물메디컬센터",
		"gu": "강남구",
		"dong": "논현동",
		"Latitude": "37.509837500000003",
		"Longitude": "127.0414213",
		"address": "서울특별시 강남구 논현동 277-21번지"
	},
	{
		"name": "24시 애니동물병원",
		"gu": "성북구",
		"dong": "보문동",
		"Latitude": "37.583950199999997",
		"Longitude": "127.0198223",
		"address": "서울특별시 성북구 보문동5가 3-1번지"
	},
	{
		"name": "에이블 동물병원",
		"gu": "서초구",
		"dong": "양재동",
		"Latitude": "37.480885800000003",
		"Longitude": "127.0416397",
		"address": "서울특별시 서초구 양재동 4-14번지"
	},
	{
		"name": "나래동물병원",
		"gu": "광진구",
		"dong": "군자동",
		"Latitude": "37.5553271",
		"Longitude": "127.0781211",
		"address": "서울특별시 광진구 군자동 1-2번지"
	},
	{
		"name": "보람동물병원",
		"gu": "광진구",
		"dong": "군자동",
		"Latitude": "37.5504897",
		"Longitude": "127.071146",
		"address": "서울특별시 광진구 군자동 363-4번지"
	},
	{
		"name": "애플동물병원",
		"gu": "광진구",
		"dong": "능동",
		"Latitude": "37.553141799999999",
		"Longitude": "127.0882999",
		"address": "서울특별시 광진구 능동 256-1번지"
	},
	{
		"name": "로엘동물병원",
		"gu": "광진구",
		"dong": "자양동",
		"Latitude": "37.532044800000001",
		"Longitude": "127.07879699999999",
		"address": "서울특별시 광진구 자양동 606-14번지"
	},
	{
		"name": "아라우나동물병원",
		"gu": "광진구",
		"dong": "자양동",
		"Latitude": "37.534457099999997",
		"Longitude": "127.0707689",
		"address": "서울특별시 광진구 자양동 553-531번지"
	},
	{
		"name": "노룬산동물병원",
		"gu": "광진구",
		"dong": "자양동",
		"Latitude": "37.536879200000001",
		"Longitude": "127.0617852",
		"address": "서울특별시 광진구 자양동 236-127번지"
	},
	{
		"name": "에디슨동물병원",
		"gu": "광진구",
		"dong": "광장동",
		"Latitude": "37.541897499999997",
		"Longitude": "127.0996724",
		"address": "서울특별시 광진구 광장동 565번지"
	},
	{
		"name": "준동물병원",
		"gu": "광진구",
		"dong": "자양동",
		"Latitude": "37.534874700000003",
		"Longitude": "127.07035980000001",
		"address": "서울특별시 광진구 자양동 553-588번지"
	},
	{
		"name": "서울어린이대공원동물병원",
		"gu": "광진구",
		"dong": "능동",
		"Latitude": "37.549363",
		"Longitude": "127.08181260000001",
		"address": "서울특별시 광진구 능동 18-0번지"
	},
	{
		"name": "나루동물병원",
		"gu": "광진구",
		"dong": "광장동",
		"Latitude": "37.555853800000001",
		"Longitude": "127.10870269999999",
		"address": "서울특별시 광진구 광장동 582번지"
	},
	{
		"name": "다온동물병원",
		"gu": "광진구",
		"dong": "중곡동",
		"Latitude": "37.565923900000001",
		"Longitude": "127.0814283",
		"address": "서울특별시 광진구 중곡동 193-29번지"
	},
	{
		"name": "혜민동물병원",
		"gu": "광진구",
		"dong": "자양동",
		"Latitude": "37.535391599999997",
		"Longitude": "127.08092379999999",
		"address": "서울특별시 광진구 자양동 612-48번지"
	},
	{
		"name": "자양동물병원",
		"gu": "광진구",
		"dong": "자양동",
		"Latitude": "37.531751800000002",
		"Longitude": "127.0793493",
		"address": "서울특별시 광진구 자양동 606-27번지"
	},
	{
		"name": "드림펫 동물병원",
		"gu": "광진구",
		"dong": "중곡동",
		"Latitude": "37.563162200000001",
		"Longitude": "127.0824753",
		"address": "서울특별시 광진구 중곡동 165-9번지"
	},
	{
		"name": "서울동물병원",
		"gu": "광진구",
		"dong": "중곡동",
		"Latitude": "37.5544972",
		"Longitude": "127.0870554",
		"address": "서울특별시 광진구 중곡동 119-7번지"
	},
	{
		"name": "동물병원 베를린",
		"gu": "관악구",
		"dong": "신림동",
		"Latitude": "37.4832106",
		"Longitude": "126.9207275",
		"address": "서울특별시 관악구 신림동 487-7번지"
	},
	{
		"name": "굿모닝동물병원",
		"gu": "강남구",
		"dong": "청담동",
		"Latitude": "37.518124999999998",
		"Longitude": "127.0451693",
		"address": "서울특별시 강남구 청담동 44-15번지"
	},
	{
		"name": "펫365동물병원",
		"gu": "성동구",
		"dong": "금호동",
		"Latitude": "37.545226800000002",
		"Longitude": "127.025308",
		"address": "서울특별시 성동구 금호동4가 1338번지 10통4반 현대ESA아파트 910호"
	},
	{
		"name": "경인동물의료센터",
		"gu": "영등포구",
		"dong": "영등포동",
		"Latitude": "37.5156074",
		"Longitude": "126.9053636",
		"address": "서울특별시 영등포구 영등포동 423-44번지 1층"
	},
	{
		"name": "마포 키다리 동물병원",
		"gu": "마포구",
		"dong": "성산동",
		"Latitude": "37.565236300000002",
		"Longitude": "126.9158054",
		"address": "서울특별시 마포구 성산동 22통4반 청구아파트 102동 201호"
	},
	{
		"name": "바른동물병원",
		"gu": "중구",
		"dong": "황학동",
		"Latitude": "37.567451699999999",
		"Longitude": "127.02140989999999",
		"address": "서울특별시 중구 황학동"
	},
	{
		"name": "앙리동물병원",
		"gu": "성북구",
		"dong": "성북동",
		"Latitude": "37.593395999999998",
		"Longitude": "127.0016826",
		"address": "서울특별시 성북구 성북동 155-15번지"
	},
	{
		"name": "청담눈초롱안과동물병원",
		"gu": "강남구",
		"dong": "청담동",
		"Latitude": "37.525117000000002",
		"Longitude": "127.0525368",
		"address": "서울특별시 강남구 청담동 125-12번지 4층"
	},
	{
		"name": "스마트동물병원 성북길음점",
		"gu": "성북구",
		"dong": "길음동",
		"Latitude": "37.609611899999997",
		"Longitude": "127.0190949",
		"address": "서울특별시 성북구 길음동 1285번지 길음뉴타운7단지 두산위브상가 103호"
	},
	{
		"name": "넥스펫동물병원",
		"gu": "서초구",
		"dong": "서초동",
		"Latitude": "37.4868016",
		"Longitude": "127.0220078",
		"address": "서울특별시 서초구 서초동 1605-5번지 서광빌딩 1층"
	},
	{
		"name": "GD동물병원",
		"gu": "강동구",
		"dong": "상일동",
		"Latitude": "37.5482102",
		"Longitude": "127.1730939",
		"address": "서울특별시 강동구 상일동 341-2번지"
	},
	{
		"name": "피카소동물병원",
		"gu": "강동구",
		"dong": "명일동",
		"Latitude": "37.550213800000002",
		"Longitude": "127.1467061",
		"address": "서울특별시 강동구 명일동 289-15번지"
	},
	{
		"name": "길종합동물병원",
		"gu": "강동구",
		"dong": "길동",
		"Latitude": "37.535039599999998",
		"Longitude": "127.1441442",
		"address": "서울특별시 강동구 길동 151번지"
	},
	{
		"name": "세종동물병원",
		"gu": "강동구",
		"dong": "천호동",
		"Latitude": "37.541695300000001",
		"Longitude": "127.1304042",
		"address": "서울특별시 강동구 천호동 397-27번지 24통1반"
	},
	{
		"name": "광나루동물병원",
		"gu": "강동구",
		"dong": "암사동",
		"Latitude": "37.552289000000002",
		"Longitude": "127.1285847",
		"address": "서울특별시 강동구 암사동 500번지"
	},
	{
		"name": "가나동물병원",
		"gu": "강동구",
		"dong": "암사동",
		"Latitude": "37.554904999999998",
		"Longitude": "127.1367144",
		"address": "서울특별시 강동구 암사동 451-12번지 5통8반"
	},
	{
		"name": "사랑이있는동물병원",
		"gu": "강동구",
		"dong": "명일동",
		"Latitude": "37.550220899999999",
		"Longitude": "127.15004089999999",
		"address": "서울특별시 강동구 명일동"
	},
	{
		"name": "강동동물병원",
		"gu": "강동구",
		"dong": "길동",
		"Latitude": "37.542330100000001",
		"Longitude": "127.1419222",
		"address": "서울특별시 강동구 길동 336-4번지"
	},
	{
		"name": "CH동물병원",
		"gu": "강동구",
		"dong": "천호동",
		"Latitude": "37.548014599999902",
		"Longitude": "127.1355966",
		"address": "서울특별시 강동구 천호동 233-145번지 19통4반"
	},
	{
		"name": "박형우동물병원",
		"gu": "강동구",
		"dong": "성내동",
		"Latitude": "37.531499099999998",
		"Longitude": "127.1212845",
		"address": "서울특별시 강동구 성내동 321-1번지"
	},
	{
		"name": "미드미동물의료센터",
		"gu": "강동구",
		"dong": "명일동",
		"Latitude": "37.547238999999998",
		"Longitude": "127.1436574",
		"address": "서울특별시 강동구 명일동 345-20번지 연우빌딩"
	},
	{
		"name": "위즈펫동물병원 강동점",
		"gu": "강동구",
		"dong": "천호동",
		"Latitude": "37.545658199999998",
		"Longitude": "127.1422439",
		"address": "서울특별시 강동구 천호동 42번지"
	},
	{
		"name": "Dr.주 동물병원",
		"gu": "강동구",
		"dong": "둔촌동",
		"Latitude": "37.528759899999997",
		"Longitude": "127.13717870000001",
		"address": "서울특별시 강동구 둔촌동 517-4번지"
	},
	{
		"name": "강앤정 동물병원",
		"gu": "서대문구",
		"dong": "남가좌동",
		"Latitude": "37.571990800000002",
		"Longitude": "126.9111465",
		"address": "서울특별시 서대문구 남가좌동 385번지 DMC파크뷰자이"
	},
	{
		"name": "이황 동물병원",
		"gu": "마포구",
		"dong": "망원동",
		"Latitude": "37.560759999999902",
		"Longitude": "126.90546399999999",
		"address": "서울특별시 마포구 망원동 477-3번지"
	},
	{
		"name": "와우 동물병원",
		"gu": "마포구",
		"dong": "성산동",
		"Latitude": "37.566964899999903",
		"Longitude": "126.9097901",
		"address": "서울특별시 마포구 성산동 200-24번지"
	},
	{
		"name": "24시 수유 바른펫 동물의료센터",
		"gu": "강북구",
		"dong": "수유동",
		"Latitude": "37.641418299999998",
		"Longitude": "127.0222438",
		"address": "서울특별시 강북구 수유동 39-10번지 1"
	},
	{
		"name": "고덕 고래힐동물병원",
		"gu": "강동구",
		"dong": "고덕동",
		"Latitude": "37.573986099999999",
		"Longitude": "127.1628048",
		"address": "서울특별시 강동구 고덕동 688번지 래미안힐스테이트고덕 상가 2층 212"
	},
	{
		"name": "24시 SNC 동물메디컬센터",
		"gu": "강남구",
		"dong": "역삼동",
		"Latitude": "37.497371399999999",
		"Longitude": "127.0388653",
		"address": "서울특별시 강남구 역삼동 727-8번지 1층"
	},
	{
		"name": "우리덕구동물병원",
		"gu": "은평구",
		"dong": "진관동",
		"Latitude": "37.634294599999997",
		"Longitude": "126.927747",
		"address": "서울특별시 은평구 진관동 83번지 은평뉴타운우물골 205동 B104호"
	},
	{
		"name": "이n김동물병원",
		"gu": "도봉구",
		"dong": "도봉동",
		"Latitude": "37.669389700000004",
		"Longitude": "127.0464436",
		"address": "서울특별시 도봉구 도봉동 636-12번지"
	},
	{
		"name": "가든펫동물병원",
		"gu": "은평구",
		"dong": "증산동",
		"Latitude": "37.586961500000001",
		"Longitude": "126.90852700000001",
		"address": "서울특별시 은평구 증산동 202-27번지 지하1층"
	},
	{
		"name": ""
	}
]